{"type":"FeatureCollection","features":[{"type":"Feature","geometry":{"type":"Point","coordinates":[-105.7365103,28.0175605]},"properties":{"name":"Sierra Villalba","ele":16440.0,"type":"peak"}},{"type":"Feature","geometry":{"type":"Point","coordinates":[-151.006239,63.069115]},"properties":{"name":"Denali","ele":6190.0,"type":"peak","wikidata":"Q130018","wikipedia":"en:Denali"}},{"type":"Feature","geometry":{"type":"Point","coordinates":[-140.4056911,60.5678461]},"properties":{"name":"Mount Logan","ele":5959.0,"type":"peak","wikidata":"Q120306","wikipedia":"en:Mount Logan"}},{"type":"Feature","geometry":{"type":"Point","coordinates":[-140.9307367,60.2934458]},"properties":{"name":"Mount Saint Elias","ele":5489.0,"type":"peak","wikidata":"Q770496","wikipedia":"en:Mount Saint Elias"}},{"type":"Feature","geometry":{"type":"Point","coordinates":[-151.3986499,62.9605113]},"properties":{"name":"Mount Foraker","ele":5303.0,"type":"peak","wikidata":"Q1179471"}},{"type":"Feature","geometry":{"type":"Point","coordinates":[-140.465998,61.0215698]},"properties":{"name":"Mount Lucania","ele":5240.0,"type":"peak","wikidata":"Q1153188","wikipedia":"en:Mount Lucania"}},{"type":"Feature","geometry":{"type":"Point","coordinates":[-140.653889,60.583056]},"properties":{"name":"King Peak","ele":5173.0,"type":"peak","wikidata":"Q59320","wikipedia":"en:King Peak (Yukon)"}},{"type":"Feature","geometry":{"type":"Point","coordinates":[-143.3887508,61.7251443]},"properties":{"name":"Mount Blackburn East Summit","ele":4964.0,"type":"peak","wikidata":"Q1520855","wikipedia":"en:Mount Blackburn"}},{"type":"Feature","geometry":{"type":"Point","coordinates":[-140.5122186,61.2329969]},"properties":{"name":"Mount Wood","ele":4842.0,"type":"peak","wikidata":"Q2305483"}},{"type":"Feature","geometry":{"type":"Point","coordinates":[-139.692981,60.3352244]},"properties":{"name":"Mount Vancouver","ele":4812.0,"type":"peak","wikidata":"Q302483","wikipedia":"en:Mount Vancouver"}},{"type":"Feature","geometry":{"type":"Point","coordinates":[-137.526114,58.9063722]},"properties":{"name":"Mount Fairweather","ele":4671.0,"type":"peak","wikidata":"Q1544340","wikipedia":"en:Mount Fairweather"}},{"type":"Feature","geometry":{"type":"Point","coordinates":[-139.072126,60.3194292]},"properties":{"name":"Mount Hubbard","ele":4557.0,"type":"peak","wikidata":"Q612894"}},{"type":"Feature","geometry":{"type":"Point","coordinates":[-141.1444474,61.2857004]},"properties":{"name":"Mount Bear","ele":4520.0,"type":"peak","wikidata":"Q1950390"}},{"type":"Feature","geometry":{"type":"Point","coordinates":[-140.016999,61.0035182]},"properties":{"name":"Mount Walsh","ele":4507.0,"type":"peak","wikidata":"Q3468045"}},{"type":"Feature","geometry":{"type":"Point","coordinates":[-118.2921377,36.5785905]},"properties":{"name":"Mount Whitney","ele":4419.6,"type":"peak","wikidata":"Q235539","wikipedia":"en:Mount Whitney"}},{"type":"Feature","geometry":{"type":"Point","coordinates":[-141.7869759,61.3270953]},"properties":{"name":"University Peak","ele":4411.0,"type":"peak","wikidata":"Q920619"}},{"type":"Feature","geometry":{"type":"Point","coordinates":[-106.4453787,39.1177521]},"properties":{"name":"Mount Elbert","ele":4401.2,"type":"peak","wikidata":"Q657225","wikipedia":"en:Mount Elbert"}},{"type":"Feature","geometry":{"type":"Point","coordinates":[-106.320798,38.924425]},"properties":{"name":"Mount Harvard","ele":4395.6,"type":"peak","wikidata":"Q4245165","wikipedia":"en:Mount Harvard"}},{"type":"Feature","geometry":{"type":"Point","coordinates":[-121.7604091,46.8528725]},"properties":{"name":"Columbia Crest","ele":4392.0,"type":"peak","wikidata":"Q49684895"}},{"type":"Feature","geometry":{"type":"Point","coordinates":[-105.485665,37.5775315]},"properties":{"name":"Blanca Peak","ele":4374.0,"type":"peak","wikidata":"Q670233","wikipedia":"en:Blanca Peak"}},{"type":"Feature","geometry":{"type":"Point","coordinates":[-107.4625069,38.0717523]},"properties":{"name":"Uncompahgre Peak","ele":4365.0,"type":"peak","wikidata":"Q576184","wikipedia":"en:Uncompahgre Peak"}},{"type":"Feature","geometry":{"type":"Point","coordinates":[-105.585452,37.9668836]},"properties":{"name":"Crestone Peak","ele":4359.0,"type":"peak","wikidata":"Q5184628","wikipedia":"en:Crestone Peak"}},{"type":"Feature","geometry":{"type":"Point","coordinates":[-106.1114834,39.3514491]},"properties":{"name":"Mount Lincoln","ele":4356.5,"type":"peak","wikidata":"Q502645","wikipedia":"en:Mount Lincoln (Colorado)"}},{"type":"Feature","geometry":{"type":"Point","coordinates":[-106.8613686,39.009742]},"properties":{"name":"Castle Peak","ele":4352.2,"type":"peak","wikidata":"Q5050217","wikipedia":"en:Castle Peak (Colorado)"}},{"type":"Feature","geometry":{"type":"Point","coordinates":[-105.8175092,39.6338758]},"properties":{"name":"Grays Peak","ele":4352.0,"type":"peak","wikidata":"Q740336","wikipedia":"en:Grays Peak"}},{"type":"Feature","geometry":{"type":"Point","coordinates":[-106.2462386,38.6741589]},"properties":{"name":"Mount Antero","ele":4351.4,"type":"peak","wikidata":"Q4245453","wikipedia":"en:Mount Antero"}},{"type":"Feature","geometry":{"type":"Point","coordinates":[-105.643699,39.5883492]},"properties":{"name":"Mount Blue Sky","ele":4350.0,"type":"peak","wikidata":"Q1950460","wikipedia":"en:Mount Blue Sky"}},{"type":"Feature","geometry":{"type":"Point","coordinates":[-105.6152347,40.2548911]},"properties":{"name":"Longs Peak","ele":4346.0,"type":"peak","wikidata":"Q1317383","wikipedia":"en:Longs Peak"}},{"type":"Feature","geometry":{"type":"Point","coordinates":[-118.2557165,37.6340536]},"properties":{"name":"White Mountain Peak","ele":4344.0,"type":"peak","wikidata":"Q4468440","wikipedia":"en:White Mountain Peak"}},{"type":"Feature","geometry":{"type":"Point","coordinates":[-107.9916312,37.8392109]},"properties":{"name":"Mount Wilson","ele":4344.0,"type":"peak","wikidata":"Q6924620"}},{"type":"Feature","geometry":{"type":"Point","coordinates":[-140.213611,60.606389]},"properties":{"name":"McArthur Peak","ele":4344.0,"type":"peak","wikidata":"Q1405167","wikipedia":"en:McArthur Peak"}},{"type":"Feature","geometry":{"type":"Point","coordinates":[-118.514444,37.0941667]},"properties":{"name":"North Palisade","ele":4343.0,"type":"peak","wikidata":"Q4327485"}},{"type":"Feature","geometry":{"type":"Point","coordinates":[-107.7922692,38.0037895]},"properties":{"name":"Mount Sneffels","ele":4315.4,"type":"peak","wikidata":"Q495794","wikipedia":"en:Mount Sneffels"}},{"type":"Feature","geometry":{"type":"Point","coordinates":[-107.6211987,37.6252457]},"properties":{"name":"North Eolus","ele":4311.0,"type":"peak"}},{"type":"Feature","geometry":{"type":"Point","coordinates":[-107.082727,39.15021]},"properties":{"name":"Capitol Peak","ele":4309.0,"type":"peak","wikidata":"Q5035913","wikipedia":"en:Capitol Peak (Colorado)"}},{"type":"Feature","geometry":{"type":"Point","coordinates":[-105.0439523,38.8404012]},"properties":{"name":"Pikes Peak","ele":4302.0,"type":"peak","wikidata":"Q665321"}},{"type":"Feature","geometry":{"type":"Point","coordinates":[-140.458206,60.3080847]},"properties":{"name":"Mount Augusta","ele":4289.0,"type":"peak","wikidata":"Q605896"}},{"type":"Feature","geometry":{"type":"Point","coordinates":[-107.504452,37.9129884]},"properties":{"name":"Handies Peak","ele":4284.8,"type":"peak","wikidata":"Q5647436"}},{"type":"Feature","geometry":{"type":"Point","coordinates":[-105.1858008,37.1223405]},"properties":{"name":"Culebra Peak","ele":4283.0,"type":"peak","wikidata":"Q5192894"}},{"type":"Feature","geometry":{"type":"Point","coordinates":[-106.931283,37.9868041]},"properties":{"name":"San Luis Peak","ele":4273.8,"type":"peak","wikidata":"Q7414759","wikipedia":"en:San Luis Peak"}},{"type":"Feature","geometry":{"type":"Point","coordinates":[-106.4817768,39.4668216]},"properties":{"name":"Mount of the Holy Cross","ele":4270.5,"type":"peak","wikidata":"Q6924826"}},{"type":"Feature","geometry":{"type":"Point","coordinates":[-118.6729935,37.2705822]},"properties":{"name":"Mount Humphreys","ele":4263.0,"type":"peak","wikidata":"Q3198850"}},{"type":"Feature","geometry":{"type":"Point","coordinates":[-118.3958813,36.7040088]},"properties":{"name":"Mount Stanford","ele":4260.2,"type":"peak","wikidata":"Q6923833"}},{"type":"Feature","geometry":{"type":"Point","coordinates":[-106.5975314,39.0424914]},"properties":{"name":"Grizzly Peak","ele":4258.0,"type":"peak","wikidata":"Q5609807"}},{"type":"Feature","geometry":{"type":"Point","coordinates":[-106.1852987,39.1858243]},"properties":{"name":"Horseshoe Mountain","ele":4235.0,"type":"peak"}},{"type":"Feature","geometry":{"type":"Point","coordinates":[-106.2247869,38.4227766]},"properties":{"name":"Mount Ouray","ele":4233.0,"type":"peak","wikidata":"Q6922622"}},{"type":"Feature","geometry":{"type":"Point","coordinates":[-151.0670734,62.9204564]},"properties":{"name":"Mount Stevens","ele":4233.0,"type":"peak"}},{"type":"Feature","geometry":{"type":"Point","coordinates":[-140.7594166,61.240031]},"properties":{"name":"Avalanche Peak","ele":4221.0,"type":"peak"}},{"type":"Feature","geometry":{"type":"Point","coordinates":[-146.7178937,63.620167]},"properties":{"name":"Mount Hayes","ele":4216.0,"type":"peak","wikidata":"Q913898","wikipedia":"en:Mount Hayes"}},{"type":"Feature","geometry":{"type":"Point","coordinates":[-107.8283984,37.7991623]},"properties":{"name":"Vermilion Peak","ele":4212.0,"type":"peak","wikidata":"Q7921597"}},{"type":"Feature","geometry":{"type":"Point","coordinates":[-122.1977567,41.4054604]},"properties":{"name":"Misery Hill","ele":4206.2,"type":"peak","wikidata":"Q49050630"}},{"type":"Feature","geometry":{"type":"Point","coordinates":[-109.6540391,43.1843954]},"properties":{"name":"Gannett Peak","ele":4206.0,"type":"peak","wikidata":"Q1493617","wikipedia":"en:Gannett Peak"}},{"type":"Feature","geometry":{"type":"Point","coordinates":[-118.478516,36.526108]},"properties":{"name":"Mount Kaweah","ele":4205.0,"type":"peak","wikidata":"Q6921611"}},{"type":"Feature","geometry":{"type":"Point","coordinates":[-107.3925559,37.6797219]},"properties":{"name":"Rio Grande Pyramid","ele":4204.0,"type":"peak","wikidata":"Q7335223"}},{"type":"Feature","geometry":{"type":"Point","coordinates":[-110.8024362,43.7410416]},"properties":{"name":"Grand Teton","ele":4199.0,"type":"peak","wikidata":"Q2078034","wikipedia":"en:Grand Teton"}},{"type":"Feature","geometry":{"type":"Point","coordinates":[-139.981094,60.1819656]},"properties":{"name":"Mount Cook","ele":4196.0,"type":"peak","wikidata":"Q1144570","wikipedia":"en:Mount Cook (Saint Elias Mountains)"}},{"type":"Feature","geometry":{"type":"Point","coordinates":[-118.7329499,37.4051996]},"properties":{"name":"Mount Morgan","ele":4186.0,"type":"peak","wikidata":"Q6922255"}},{"type":"Feature","geometry":{"type":"Point","coordinates":[-105.9705017,39.4448809]},"properties":{"name":"Bald Mountain","ele":4175.0,"type":"peak","wikidata":"Q4850334"}},{"type":"Feature","geometry":{"type":"Point","coordinates":[-155.4688051,19.8250797]},"properties":{"name":"Pu\u02bbukea","ele":4173.0,"type":"peak","wikidata":"Q49065236"}},{"type":"Feature","geometry":{"type":"Point","coordinates":[-105.6616745,38.1027769]},"properties":{"name":"Rito Alto Peak","ele":4168.0,"type":"peak","wikidata":"Q14685082","wikipedia":"en:Rito Alto Peak"}},{"type":"Feature","geometry":{"type":"Point","coordinates":[-105.7563968,38.2194429]},"properties":{"name":"Cottonwood Peak","ele":4144.0,"type":"peak"}},{"type":"Feature","geometry":{"type":"Point","coordinates":[-106.3406993,39.7602773]},"properties":{"name":"Mount Powell","ele":4141.0,"type":"peak","wikidata":"Q14685009"}},{"type":"Feature","geometry":{"type":"Point","coordinates":[-104.9937378,37.3757933]},"properties":{"name":"West Spanish Peak","ele":4140.0,"type":"peak","wikidata":"Q7986563"}},{"type":"Feature","geometry":{"type":"Point","coordinates":[-105.6463815,40.4845827]},"properties":{"name":"Hagues Peak","ele":4133.0,"type":"peak","wikidata":"Q5638837"}},{"type":"Feature","geometry":{"type":"Point","coordinates":[-118.3431722,37.7832642]},"properties":{"name":"Mount Dubois","ele":4126.0,"type":"peak","wikidata":"Q23950192"}},{"type":"Feature","geometry":{"type":"Point","coordinates":[-118.7195528,37.1032709]},"properties":{"name":"Mount Goddard","ele":4126.0,"type":"peak","wikidata":"Q6920932"}},{"type":"Feature","geometry":{"type":"Point","coordinates":[-106.4161368,38.7338843]},"properties":{"name":"Emma Burr Mountain","ele":4125.0,"type":"peak"}},{"type":"Feature","geometry":{"type":"Point","coordinates":[-110.372798,40.7762377]},"properties":{"name":"Kings Peak","ele":4123.3,"type":"peak","wikidata":"Q1642538","wikipedia":"en:Kings Peak (Utah)"}},{"type":"Feature","geometry":{"type":"Point","coordinates":[-105.1647769,37.2891801]},"properties":{"name":"Trinchera Peak","ele":4118.0,"type":"peak"}},{"type":"Feature","geometry":{"type":"Point","coordinates":[-143.6197356,62.0234565]},"properties":{"name":"Mount Jarvis","ele":4109.0,"type":"peak"}},{"type":"Feature","geometry":{"type":"Point","coordinates":[-118.40542,36.94727]},"properties":{"name":"Mount Pinchot","ele":4107.0,"type":"peak","wikidata":"Q25206397"}},{"type":"Feature","geometry":{"type":"Point","coordinates":[-107.618394,37.7872194]},"properties":{"name":"Kendall Peak","ele":4103.0,"type":"peak"}},{"type":"Feature","geometry":{"type":"Point","coordinates":[-105.6500032,40.0266534]},"properties":{"name":"North Arapaho Peak","ele":4100.0,"type":"peak","wikidata":"Q7053957"}},{"type":"Feature","geometry":{"type":"Point","coordinates":[-141.1011111,61.5219444]},"properties":{"name":"Mount Natazhat","ele":4095.0,"type":"peak","wikidata":"Q1950617","wikipedia":"en:Mount Natazhat"}},{"type":"Feature","geometry":{"type":"Point","coordinates":[-155.604571,19.456005]},"properties":{"name":"1949 Cone","ele":4089.94,"type":"peak","wikidata":"Q49008394"}},{"type":"Feature","geometry":{"type":"Point","coordinates":[-107.0990806,39.0143331]},"properties":{"name":"Treasury Mountain","ele":4080.0,"type":"peak"}},{"type":"Feature","geometry":{"type":"Point","coordinates":[-107.1031057,37.955553]},"properties":{"name":"Baldy Cinco","ele":4076.0,"type":"peak"}},{"type":"Feature","geometry":{"type":"Point","coordinates":[-105.7133381,39.8380428]},"properties":{"name":"Parry Peak","ele":4076.0,"type":"peak","wikidata":"Q2054108"}},{"type":"Feature","geometry":{"type":"Point","coordinates":[-106.1893198,39.6541042]},"properties":{"name":"Mount Silverthorne","ele":4072.0,"type":"peak"}},{"type":"Feature","geometry":{"type":"Point","coordinates":[-105.4945,37.8491666]},"properties":{"name":"Mount Herard","ele":4070.0,"type":"peak","wikidata":"Q14684986","wikipedia":"en:Mount Herard"}},{"type":"Feature","geometry":{"type":"Point","coordinates":[-107.3468526,37.8603377]},"properties":{"name":"Coney Point","ele":4064.0,"type":"peak"}},{"type":"Feature","geometry":{"type":"Point","coordinates":[-109.6723753,43.3099514]},"properties":{"name":"Downs Mountain","ele":4063.0,"type":"peak","wikidata":"Q14714702","wikipedia":"en:Downs Mountain"}},{"type":"Feature","geometry":{"type":"Point","coordinates":[-107.6378379,37.9208287]},"properties":{"name":"Brown Mountain","ele":4062.0,"type":"peak"}},{"type":"Feature","geometry":{"type":"Point","coordinates":[-106.1250179,38.9916612]},"properties":{"name":"West Buffalo Peak","ele":4061.0,"type":"peak","wikidata":"Q14685162"}},{"type":"Feature","geometry":{"type":"Point","coordinates":[-106.6211427,38.6855494]},"properties":{"name":"Henry Mountain","ele":4042.0,"type":"peak","wikidata":"Q14684563","wikipedia":"en:Henry Mountain"}},{"type":"Feature","geometry":{"type":"Point","coordinates":[-108.0889642,37.4449971]},"properties":{"name":"Hesperus Mountain","ele":4033.0,"type":"peak","wikidata":"Q5746077"}},{"type":"Feature","geometry":{"type":"Point","coordinates":[-106.4339261,37.4833384]},"properties":{"name":"Bennett Peak","ele":4026.0,"type":"peak","wikidata":"Q14684306"}},{"type":"Feature","geometry":{"type":"Point","coordinates":[-106.696704,37.3508407]},"properties":{"name":"Summit Peak","ele":4023.0,"type":"peak","wikidata":"Q7637850"}},{"type":"Feature","geometry":{"type":"Point","coordinates":[-109.1284377,42.7084563]},"properties":{"name":"Wind River Peak","ele":4022.1,"type":"peak","wikidata":"Q8023948","wikipedia":"en:Wind River Peak"}},{"type":"Feature","geometry":{"type":"Point","coordinates":[-110.607387,40.7566116]},"properties":{"name":"Mount Lovenia","ele":4020.0,"type":"peak","wikidata":"Q49053470","wikipedia":"en:Mount Lovenia"}},{"type":"Feature","geometry":{"type":"Point","coordinates":[-107.1739548,44.3821883]},"properties":{"name":"Cloud Peak","ele":4017.0,"type":"peak","wikidata":"Q5135676","wikipedia":"en:Cloud Peak"}},{"type":"Feature","geometry":{"type":"Point","coordinates":[-147.7515041,61.4375814]},"properties":{"name":"Mount Marcus Baker","ele":4016.0,"type":"peak","wikidata":"Q829432"}},{"type":"Feature","geometry":{"type":"Point","coordinates":[-150.6750652,63.115724]},"properties":{"name":"Mount Silverthrone","ele":4014.0,"type":"peak","wikidata":"Q8039585"}},{"type":"Feature","geometry":{"type":"Point","coordinates":[-105.416808,36.5568934]},"properties":{"name":"Wheeler Peak","ele":4011.0,"type":"peak","wikidata":"Q1505965","wikipedia":"en:Wheeler Peak (New Mexico)"}},{"type":"Feature","geometry":{"type":"Point","coordinates":[-119.199554,37.689056]},"properties":{"name":"Mount Ritter","ele":4007.0,"type":"peak","wikidata":"Q841110"}},{"type":"Feature","geometry":{"type":"Point","coordinates":[-118.8692918,37.507436]},"properties":{"name":"Red Slate Mountain","ele":4005.0,"type":"peak","wikidata":"Q1405920"}},{"type":"Feature","geometry":{"type":"Point","coordinates":[-106.9817115,37.5738939]},"properties":{"name":"South River Peak","ele":3994.0,"type":"peak","wikidata":"Q14685104"}},{"type":"Feature","geometry":{"type":"Point","coordinates":[-105.889455,38.3413872]},"properties":{"name":"Bushnell Peak","ele":3993.0,"type":"peak","wikidata":"Q14684345"}},{"type":"Feature","geometry":{"type":"Point","coordinates":[-143.1730945,61.7477483]},"properties":{"name":"Parka Peak","ele":3993.0,"type":"peak"}},{"type":"Feature","geometry":{"type":"Point","coordinates":[-114.3139101,38.9857737]},"properties":{"name":"Wheeler Peak","ele":3982.0,"type":"peak","wikidata":"Q2566649","wikipedia":"en:Wheeler Peak (Nevada)"}},{"type":"Feature","geometry":{"type":"Point","coordinates":[-119.2211334,37.899857]},"properties":{"name":"Mount Dana","ele":3976.0,"type":"peak","wikidata":"Q1862168"}},{"type":"Feature","geometry":{"type":"Point","coordinates":[-105.650016,35.9719721]},"properties":{"name":"West Truchas Peak","ele":3976.0,"type":"peak"}},{"type":"Feature","geometry":{"type":"Point","coordinates":[-107.1993814,38.7179023]},"properties":{"name":"West Elk Peak","ele":3975.0,"type":"peak","wikidata":"Q14685165","wikipedia":"en:West Elk Peak"}},{"type":"Feature","geometry":{"type":"Point","coordinates":[-146.3979721,63.5681109]},"properties":{"name":"Mount Moffet","ele":3969.0,"type":"peak"}},{"type":"Feature","geometry":{"type":"Point","coordinates":[-144.1108783,62.0385366]},"properties":{"name":"Mount Zanetti","ele":3965.0,"type":"peak"}},{"type":"Feature","geometry":{"type":"Point","coordinates":[-106.6347621,37.904443]},"properties":{"name":"Mesa Mountain","ele":3954.0,"type":"peak"}},{"type":"Feature","geometry":{"type":"Point","coordinates":[-107.2368237,37.5986688]},"properties":{"name":"Hossick Peak","ele":3952.3,"type":"peak"}},{"type":"Feature","geometry":{"type":"Point","coordinates":[-105.9300132,40.6066476]},"properties":{"name":"Clark Peak","ele":3947.0,"type":"peak","wikidata":"Q5127348"}},{"type":"Feature","geometry":{"type":"Point","coordinates":[-105.7575082,40.3710954]},"properties":{"name":"Mount Julian","ele":3940.0,"type":"peak","wikidata":"Q6921548"}},{"type":"Feature","geometry":{"type":"Point","coordinates":[-105.8950133,40.4694275]},"properties":{"name":"Mount Richthofen","ele":3929.0,"type":"peak","wikidata":"Q8530206"}},{"type":"Feature","geometry":{"type":"Point","coordinates":[-139.7245681,60.6284726]},"properties":{"name":"Mount Queen Mary","ele":3928.0,"type":"peak","wikidata":"Q8530242","wikipedia":"en:Mount Queen Mary"}},{"type":"Feature","geometry":{"type":"Point","coordinates":[-105.3379994,36.9604788]},"properties":{"name":"Vintrero Peak","ele":3927.0,"type":"peak"}},{"type":"Feature","geometry":{"type":"Point","coordinates":[-106.2536351,39.3455441]},"properties":{"name":"Buckeye Peak","ele":3923.0,"type":"peak"}},{"type":"Feature","geometry":{"type":"Point","coordinates":[-105.9472369,39.8644308]},"properties":{"name":"Byers Peak","ele":3906.0,"type":"peak"}},{"type":"Feature","geometry":{"type":"Point","coordinates":[-109.8075329,45.1634296]},"properties":{"name":"Granite Peak","ele":3903.5,"type":"peak","wikidata":"Q599777"}},{"type":"Feature","geometry":{"type":"Point","coordinates":[-107.2445299,38.0332914]},"properties":{"name":"Lake Point","ele":3901.0,"type":"peak"}},{"type":"Feature","geometry":{"type":"Point","coordinates":[-106.1214267,39.5216508]},"properties":{"name":"Peak 4","ele":3897.0,"type":"peak"}},{"type":"Feature","geometry":{"type":"Point","coordinates":[-106.3497472,38.553052]},"properties":{"name":"Bald Mountain","ele":3894.0,"type":"peak"}},{"type":"Feature","geometry":{"type":"Point","coordinates":[-106.6269793,37.1044538]},"properties":{"name":"Banded Peak","ele":3892.0,"type":"peak"}},{"type":"Feature","geometry":{"type":"Point","coordinates":[-109.2956895,42.9155096]},"properties":{"name":"Roberts Mountain","ele":3889.0,"type":"peak","wikidata":"Q49068773"}},{"type":"Feature","geometry":{"type":"Point","coordinates":[-105.4933387,36.7916939]},"properties":{"name":"Venado Peak","ele":3880.0,"type":"peak","wikidata":"Q7919536","wikipedia":"en:Venado Peak"}},{"type":"Feature","geometry":{"type":"Point","coordinates":[-137.1718077,58.6627145]},"properties":{"name":"Mount Crillon","ele":3879.0,"type":"peak","wikidata":"Q6920297","wikipedia":"en:Mount Crillon"}},{"type":"Feature","geometry":{"type":"Point","coordinates":[-109.2292799,38.4383204]},"properties":{"name":"Mount Peale","ele":3877.0,"type":"peak","wikidata":"Q6922678"}},{"type":"Feature","geometry":{"type":"Point","coordinates":[-107.2822728,39.0580439]},"properties":{"name":"Chair Mountain","ele":3876.0,"type":"peak"}},{"type":"Feature","geometry":{"type":"Point","coordinates":[-107.0550486,37.7933334]},"properties":{"name":"Bristol Head","ele":3875.0,"type":"peak"}},{"type":"Feature","geometry":{"type":"Point","coordinates":[-106.7180904,38.9327699]},"properties":{"name":"American Flag Mountain","ele":3875.0,"type":"peak"}},{"type":"Feature","geometry":{"type":"Point","coordinates":[-110.1832107,40.8318918]},"properties":{"name":"South Burro Peak","ele":3873.0,"type":"peak"}},{"type":"Feature","geometry":{"type":"Point","coordinates":[-110.7521139,40.7738348]},"properties":{"name":"Lamotte Peak","ele":3870.0,"type":"peak"}},{"type":"Feature","geometry":{"type":"Point","coordinates":[-113.781085,44.1373798]},"properties":{"name":"Borah Peak","ele":3860.5968,"type":"peak","wikidata":"Q893312"}},{"type":"Feature","geometry":{"type":"Point","coordinates":[-107.3826472,38.8121353]},"properties":{"name":"Mount Gunnison","ele":3860.0,"type":"peak","wikidata":"Q14684984","wikipedia":"en:Mount Gunnison"}},{"type":"Feature","geometry":{"type":"Point","coordinates":[-107.9875708,37.6852733]},"properties":{"name":"Blackhawk Mountain","ele":3855.0,"type":"peak"}},{"type":"Feature","geometry":{"type":"Point","coordinates":[-105.7581171,35.8322357]},"properties":{"name":"Santa Fe Baldy","ele":3847.0,"type":"peak","wikidata":"Q7419501","wikipedia":"en:Santa Fe Baldy"}},{"type":"Feature","geometry":{"type":"Point","coordinates":[-109.6304476,45.0988325]},"properties":{"name":"Castle Mountain","ele":3842.0,"type":"peak","wikidata":"Q28056261"}},{"type":"Feature","geometry":{"type":"Point","coordinates":[-118.5456562,36.9318813]},"properties":{"name":"State Peak","ele":3840.0,"type":"peak","wikidata":"Q49077754"}},{"type":"Feature","geometry":{"type":"Point","coordinates":[-108.2559139,37.888048]},"properties":{"name":"Lone Cone","ele":3836.0,"type":"peak","wikidata":"Q14684908"}},{"type":"Feature","geometry":{"type":"Point","coordinates":[-107.0669891,37.4436162]},"properties":{"name":"Pagosa Peak","ele":3827.0,"type":"peak"}},{"type":"Feature","geometry":{"type":"Point","coordinates":[-109.2784793,43.9627324]},"properties":{"name":"Jojo Mountain","ele":3826.0,"type":"peak","wikidata":"Q49040125"}},{"type":"Feature","geometry":{"type":"Point","coordinates":[-105.2222255,36.833362]},"properties":{"name":"Little Costilla Peak","ele":3825.0,"type":"peak"}},{"type":"Feature","geometry":{"type":"Point","coordinates":[-107.3761647,37.4972239]},"properties":{"name":"Graham Peak","ele":3823.0,"type":"peak","wikidata":"Q14684531"}},{"type":"Feature","geometry":{"type":"Point","coordinates":[-147.1451442,61.4852315]},"properties":{"name":"Mount Thor","ele":3816.0,"type":"peak"}},{"type":"Feature","geometry":{"type":"Point","coordinates":[-109.0012333,42.6163437]},"properties":{"name":"Atlantic Peak","ele":3808.0,"type":"peak","wikidata":"Q16835065","wikipedia":"en:Atlantic Peak"}},{"type":"Feature","geometry":{"type":"Point","coordinates":[-106.9800451,38.8222152]},"properties":{"name":"Whetstone Mountain","ele":3807.0,"type":"peak","wikidata":"Q14685188","wikipedia":"en:Whetstone Mountain"}},{"type":"Feature","geometry":{"type":"Point","coordinates":[-106.6119769,39.2510985]},"properties":{"name":"Mount Nast","ele":3796.0,"type":"peak"}},{"type":"Feature","geometry":{"type":"Point","coordinates":[-119.3054231,38.02465]},"properties":{"name":"Excelsior Mountain","ele":3791.0,"type":"peak","wikidata":"Q49028344"}},{"type":"Feature","geometry":{"type":"Point","coordinates":[-109.2090268,43.7580118]},"properties":{"name":"Dome Mountain","ele":3791.0,"type":"peak","wikidata":"Q18210109"}},{"type":"Feature","geometry":{"type":"Point","coordinates":[-105.6052819,39.3680444]},"properties":{"name":"Kenosha Mountains","ele":3787.0,"type":"peak"}},{"type":"Feature","geometry":{"type":"Point","coordinates":[-151.2393537,63.0543781]},"properties":{"name":"Kahiltna Dome","ele":3783.0,"type":"peak","wikidata":"Q14680087","wikipedia":"en:Kahiltna Dome"}},{"type":"Feature","geometry":{"type":"Point","coordinates":[-141.0873941,60.3130911]},"properties":{"name":"The Hump","ele":3778.0,"type":"peak"}},{"type":"Feature","geometry":{"type":"Point","coordinates":[-105.4980573,39.2380457]},"properties":{"name":"Bison Mountain","ele":3777.0,"type":"peak","wikidata":"Q4918375"}},{"type":"Feature","geometry":{"type":"Point","coordinates":[-106.5633738,37.5897271]},"properties":{"name":"Del Norte Peak","ele":3775.0,"type":"peak"}},{"type":"Feature","geometry":{"type":"Point","coordinates":[-109.5545883,43.0213428]},"properties":{"name":"Angel Peak","ele":3767.0,"type":"peak","wikidata":"Q49008798"}},{"type":"Feature","geometry":{"type":"Point","coordinates":[-111.6777474,35.3259364]},"properties":{"name":"Agassiz Peak","ele":3766.0,"type":"peak","wikidata":"Q390770"}},{"type":"Feature","geometry":{"type":"Point","coordinates":[-107.0835364,40.0151423]},"properties":{"name":"Flat Top Mountain","ele":3766.0,"type":"peak","wikidata":"Q5457814"}},{"type":"Feature","geometry":{"type":"Point","coordinates":[-105.2131856,36.6297842]},"properties":{"name":"Baldy Mountain","ele":3765.0,"type":"peak","wikidata":"Q4850647"}},{"type":"Feature","geometry":{"type":"Point","coordinates":[-118.89495,37.292408]},"properties":{"name":"Mount Hooper","ele":3764.0,"type":"peak","wikidata":"Q49053075"}},{"type":"Feature","geometry":{"type":"Point","coordinates":[-105.0133252,37.8813972]},"properties":{"name":"Greenhorn Mountain","ele":3763.0,"type":"peak","wikidata":"Q5604143"}},{"type":"Feature","geometry":{"type":"Point","coordinates":[-147.2370365,63.6380611]},"properties":{"name":"Mount Deborah","ele":3761.0,"type":"peak","wikidata":"Q3819422"}},{"type":"Feature","geometry":{"type":"Point","coordinates":[-118.5481882,36.3906156]},"properties":{"name":"Bullfrog Peak","ele":3755.0,"type":"peak"}},{"type":"Feature","geometry":{"type":"Point","coordinates":[-107.1072842,44.25441]},"properties":{"name":"Bighorn Peak","ele":3755.0,"type":"peak","wikidata":"Q18208130"}},{"type":"Feature","geometry":{"type":"Point","coordinates":[-106.1362778,40.330197]},"properties":{"name":"Parkview Mountain","ele":3748.0,"type":"peak","wikidata":"Q7138769"}},{"type":"Feature","geometry":{"type":"Point","coordinates":[-105.9597388,40.3408176]},"properties":{"name":"Cascade Mountain","ele":3746.0,"type":"peak"}},{"type":"Feature","geometry":{"type":"Point","coordinates":[-106.432157,39.3151299]},"properties":{"name":"Galena Mountain","ele":3743.0,"type":"peak"}},{"type":"Feature","geometry":{"type":"Point","coordinates":[-109.5251674,44.6013367]},"properties":{"name":"Trout Peak","ele":3724.0,"type":"peak","wikidata":"Q49084962"}},{"type":"Feature","geometry":{"type":"Point","coordinates":[-106.813649,38.8072152]},"properties":{"name":"Cement Mountain","ele":3721.0,"type":"peak"}},{"type":"Feature","geometry":{"type":"Point","coordinates":[-100.2337313,24.874058]},"properties":{"name":"Cerro El Potosi","ele":3721.0,"type":"peak","wikidata":"Q1781656","wikipedia":"es:Cerro El Potos\u00ed"}},{"type":"Feature","geometry":{"type":"Point","coordinates":[-113.0826358,44.1414478]},"properties":{"name":"Diamond Peak","ele":3718.8648,"type":"peak","wikidata":"Q5270889"}},{"type":"Feature","geometry":{"type":"Point","coordinates":[-109.8284832,40.7110659]},"properties":{"name":"Marsh Peak","ele":3718.0,"type":"peak"}},{"type":"Feature","geometry":{"type":"Point","coordinates":[-109.612943,43.9663419]},"properties":{"name":"Red Tops","ele":3717.0,"type":"peak","wikidata":"Q49068038"}},{"type":"Feature","geometry":{"type":"Point","coordinates":[-109.4190393,43.8205126]},"properties":{"name":"Wiggins Peak","ele":3713.0,"type":"peak","wikidata":"Q49089792"}},{"type":"Feature","geometry":{"type":"Point","coordinates":[-106.6627159,40.8315109]},"properties":{"name":"Mount Zirkel","ele":3713.0,"type":"peak","wikidata":"Q6924808"}},{"type":"Feature","geometry":{"type":"Point","coordinates":[-112.3713194,38.3691407]},"properties":{"name":"Delano Peak","ele":3710.0,"type":"peak","wikidata":"Q1183873"}},{"type":"Feature","geometry":{"type":"Point","coordinates":[-137.3721155,58.8505327]},"properties":{"name":"Mount Salisbury","ele":3710.0,"type":"peak","wikidata":"Q1840453","wikipedia":"en:Mount Salisbury"}},{"type":"Feature","geometry":{"type":"Point","coordinates":[-100.3767423,25.1999632]},"properties":{"name":"Sierra de la Marta","ele":3705.0,"type":"peak"}},{"type":"Feature","geometry":{"type":"Point","coordinates":[-106.2594702,39.4949865]},"properties":{"name":"Ptarmigan Hill","ele":3702.0,"type":"peak"}},{"type":"Feature","geometry":{"type":"Point","coordinates":[-106.8669862,38.2738827]},"properties":{"name":"Sawtooth Mountain","ele":3700.0,"type":"peak"}},{"type":"Feature","geometry":{"type":"Point","coordinates":[-106.1072409,38.3216658]},"properties":{"name":"Whale Hill","ele":3700.0,"type":"peak"}},{"type":"Feature","geometry":{"type":"Point","coordinates":[-100.5595358,25.3642699]},"properties":{"name":"La Viga;San Rafael","ele":3700.0,"type":"peak"}},{"type":"Feature","geometry":{"type":"Point","coordinates":[-118.1181768,36.265506]},"properties":{"name":"Olancha Peak","ele":3695.0,"type":"peak","wikidata":"Q7083082"}},{"type":"Feature","geometry":{"type":"Point","coordinates":[-109.866556,43.9821725]},"properties":{"name":"Younts Peak","ele":3691.0,"type":"peak","wikidata":"Q8528647","wikipedia":"en:Younts Peak"}},{"type":"Feature","geometry":{"type":"Point","coordinates":[-109.4187691,44.1946729]},"properties":{"name":"Carter Mountain","ele":3686.0,"type":"peak","wikidata":"Q30627140"}},{"type":"Feature","geometry":{"type":"Point","coordinates":[-121.5013379,46.2046122]},"properties":{"name":"The Pinnacle","ele":3683.0,"type":"peak"}},{"type":"Feature","geometry":{"type":"Point","coordinates":[-138.9763724,60.4613675]},"properties":{"name":"Pinnacle Peak","ele":3680.0,"type":"peak"}},{"type":"Feature","geometry":{"type":"Point","coordinates":[-109.7979565,44.3368907]},"properties":{"name":"Fortress Mountain","ele":3675.0,"type":"peak","wikidata":"Q14714722"}},{"type":"Feature","geometry":{"type":"Point","coordinates":[-139.8678405,60.8563607]},"properties":{"name":"Mount Badham","ele":3670.0,"type":"peak"}},{"type":"Feature","geometry":{"type":"Point","coordinates":[-109.6007253,44.3568922]},"properties":{"name":"Ptarmigan Mountain","ele":3665.0,"type":"peak","wikidata":"Q49064345"}},{"type":"Feature","geometry":{"type":"Point","coordinates":[-106.7711485,39.4180407]},"properties":{"name":"Red Table Mountain","ele":3665.0,"type":"peak","wikidata":"Q14685074"}},{"type":"Feature","geometry":{"type":"Point","coordinates":[-113.9197191,39.8282734]},"properties":{"name":"Ibapah Peak","ele":3663.0,"type":"peak","wikidata":"Q39046201","wikipedia":"en:Ibapah Peak (Juab County, Utah)"}},{"type":"Feature","geometry":{"type":"Point","coordinates":[-114.1310768,43.7493696]},"properties":{"name":"Hyndman Peak","ele":3660.0384,"type":"peak","wikidata":"Q8536234","wikipedia":"en:Hyndman Peak"}},{"type":"Feature","geometry":{"type":"Point","coordinates":[-106.9014343,37.7497241]},"properties":{"name":"Snowshoe Mountain","ele":3658.0,"type":"peak"}},{"type":"Feature","geometry":{"type":"Point","coordinates":[-113.5811661,44.0130915]},"properties":{"name":"USGS Peak","ele":3652.0,"type":"peak","wikidata":"Q7866419"}},{"type":"Feature","geometry":{"type":"Point","coordinates":[-107.2508882,39.9413714]},"properties":{"name":"Trappers Peak","ele":3650.0,"type":"peak"}},{"type":"Feature","geometry":{"type":"Point","coordinates":[-106.4741972,38.3219403]},"properties":{"name":"Long Branch Baldy","ele":3649.0,"type":"peak"}},{"type":"Feature","geometry":{"type":"Point","coordinates":[-140.0582807,61.1552945]},"properties":{"name":"Mount Foster","ele":3644.0,"type":"peak"}},{"type":"Feature","geometry":{"type":"Point","coordinates":[-105.4364006,36.210863]},"properties":{"name":"Cerro Olla","ele":3643.0,"type":"peak","wikidata":"Q49019520"}},{"type":"Feature","geometry":{"type":"Point","coordinates":[-106.6722636,40.6902528]},"properties":{"name":"Lost Ranger Peak","ele":3641.0,"type":"peak"}},{"type":"Feature","geometry":{"type":"Point","coordinates":[-110.9031201,40.6988476]},"properties":{"name":"Bald Mountain","ele":3640.2,"type":"peak","wikidata":"Q804733"}},{"type":"Feature","geometry":{"type":"Point","coordinates":[-105.5513957,36.6519711]},"properties":{"name":"Flag Mountain","ele":3639.0,"type":"peak","wikidata":"Q49029220"}},{"type":"Feature","geometry":{"type":"Point","coordinates":[-106.3172937,41.3602463]},"properties":{"name":"Medicine Bow Peak","ele":3639.0,"type":"peak","wikidata":"Q8522292","wikipedia":"en:Medicine Bow Peak"}},{"type":"Feature","geometry":{"type":"Point","coordinates":[-105.752508,40.1644301]},"properties":{"name":"Twin Peaks","ele":3639.0,"type":"peak"}},{"type":"Feature","geometry":{"type":"Point","coordinates":[-116.926748,38.7521535]},"properties":{"name":"Mount Jefferson (South Summit)","ele":3637.0,"type":"peak","wikipedia":"en:Mount_Jefferson_(Nevada)"}},{"type":"Feature","geometry":{"type":"Point","coordinates":[-106.7317025,39.1460997]},"properties":{"name":"Smuggler Mountain","ele":3637.0,"type":"peak"}},{"type":"Feature","geometry":{"type":"Point","coordinates":[-111.7603789,39.8216247]},"properties":{"name":"Mount Nebo","ele":3635.6,"type":"peak","wikidata":"Q8519552"}},{"type":"Feature","geometry":{"type":"Point","coordinates":[-115.6954918,36.2716284]},"properties":{"name":"Charleston Peak","ele":3632.0,"type":"peak","wikidata":"Q978970"}},{"type":"Feature","geometry":{"type":"Point","coordinates":[-106.8186545,37.6197275]},"properties":{"name":"Metroz Mountain","ele":3627.0,"type":"peak"}},{"type":"Feature","geometry":{"type":"Point","coordinates":[-106.4272571,37.3258389]},"properties":{"name":"Willow Mountain","ele":3626.0,"type":"peak"}},{"type":"Feature","geometry":{"type":"Point","coordinates":[-109.7440534,43.767178]},"properties":{"name":"The Ramshorn","ele":3625.0,"type":"peak","wikidata":"Q49082894"}},{"type":"Feature","geometry":{"type":"Point","coordinates":[-105.809432,33.3742461]},"properties":{"name":"Sierra Blanca Peak","ele":3620.0,"type":"peak","wikidata":"Q49073646"}},{"type":"Feature","geometry":{"type":"Point","coordinates":[-114.5994563,39.4132732]},"properties":{"name":"North Schell Peak","ele":3614.0,"type":"peak","wikidata":"Q3344163"}},{"type":"Feature","geometry":{"type":"Point","coordinates":[-106.8239304,37.4563967]},"properties":{"name":"Treasure Mountain","ele":3613.0,"type":"peak"}},{"type":"Feature","geometry":{"type":"Point","coordinates":[-119.0213096,37.469695]},"properties":{"name":"Silver Peak","ele":3612.0,"type":"peak","wikidata":"Q49073970"}},{"type":"Feature","geometry":{"type":"Point","coordinates":[-107.7667307,37.6724977]},"properties":{"name":"Potato Hill","ele":3612.0,"type":"peak"}},{"type":"Feature","geometry":{"type":"Point","coordinates":[-119.408496,38.1799188]},"properties":{"name":"Eagle Peak","ele":3603.0,"type":"peak","wikidata":"Q49026591"}},{"type":"Feature","geometry":{"type":"Point","coordinates":[-114.5869787,44.0398058]},"properties":{"name":"Castle Peak","ele":3602.736,"type":"peak","wikidata":"Q5050221"}},{"type":"Feature","geometry":{"type":"Point","coordinates":[-105.5666813,36.0928054]},"properties":{"name":"Ripley Point","ele":3594.0,"type":"peak","wikidata":"Q49068613"}},{"type":"Feature","geometry":{"type":"Point","coordinates":[-105.1161044,38.0202833]},"properties":{"name":"Saint Charles Peak","ele":3593.0,"type":"peak"}},{"type":"Feature","geometry":{"type":"Point","coordinates":[-107.4103338,38.6611024]},"properties":{"name":"Bald Mountain","ele":3592.0,"type":"peak"}},{"type":"Feature","geometry":{"type":"Point","coordinates":[-117.3529757,38.8326664]},"properties":{"name":"Arc Dome","ele":3590.0,"type":"peak","wikidata":"Q860433"}},{"type":"Feature","geometry":{"type":"Point","coordinates":[-107.3597746,39.1849844]},"properties":{"name":"Huntsman Mountain","ele":3590.0,"type":"peak"}},{"type":"Feature","geometry":{"type":"Point","coordinates":[-106.4608667,37.0700095]},"properties":{"name":"Jarosa Peak","ele":3587.0,"type":"peak"}},{"type":"Feature","geometry":{"type":"Point","coordinates":[-110.501274,40.8657786]},"properties":{"name":"Bald Mountain","ele":3586.0,"type":"peak"}},{"type":"Feature","geometry":{"type":"Point","coordinates":[-111.6460609,40.3908264]},"properties":{"name":"Mount Timpanogos","ele":3581.0,"type":"peak","wikidata":"Q129705"}},{"type":"Feature","geometry":{"type":"Point","coordinates":[-114.1988273,39.2732187]},"properties":{"name":"Mount Moriah","ele":3577.0,"type":"peak","wikidata":"Q6922267"}},{"type":"Feature","geometry":{"type":"Point","coordinates":[-107.6261712,37.4630567]},"properties":{"name":"Miller Mountain","ele":3576.0,"type":"peak"}},{"type":"Feature","geometry":{"type":"Point","coordinates":[-119.3946277,37.6350416]},"properties":{"name":"Merced Peak","ele":3575.4,"type":"peak","wikidata":"Q6818076"}},{"type":"Feature","geometry":{"type":"Point","coordinates":[-105.6952791,38.6019402]},"properties":{"name":"Waugh Mountain","ele":3564.0,"type":"peak","wikidata":"Q14685152"}},{"type":"Feature","geometry":{"type":"Point","coordinates":[-106.0175142,38.4527756]},"properties":{"name":"Methodist Mountain","ele":3563.0,"type":"peak","wikidata":"Q6823839"}},{"type":"Feature","geometry":{"type":"Point","coordinates":[-114.4095013,43.9021335]},"properties":{"name":"Ryan Peak","ele":3561.0,"type":"peak","wikidata":"Q7384412"}},{"type":"Feature","geometry":{"type":"Point","coordinates":[-151.884484,62.7982469]},"properties":{"name":"Mount Russell","ele":3560.0,"type":"peak","wikidata":"Q6923367","wikipedia":"en:Mount Russell (Alaska)"}},{"type":"Feature","geometry":{"type":"Point","coordinates":[-106.4508599,35.9880568]},"properties":{"name":"Turkey Ridge","ele":3558.0,"type":"peak","wikidata":"Q49698600"}},{"type":"Feature","geometry":{"type":"Point","coordinates":[-105.1594979,36.4766665]},"properties":{"name":"Mount Phillips","ele":3553.0,"type":"peak","wikidata":"Q6922736"}},{"type":"Feature","geometry":{"type":"Point","coordinates":[-119.3051581,38.4365821]},"properties":{"name":"Mount Patterson","ele":3552.0,"type":"peak","wikidata":"Q49053948"}},{"type":"Feature","geometry":{"type":"Point","coordinates":[-110.7868323,40.5907783]},"properties":{"name":"East Grandaddy Mountain","ele":3551.0,"type":"peak","wikidata":"Q49026925"}},{"type":"Feature","geometry":{"type":"Point","coordinates":[-105.5539046,35.7666999]},"properties":{"name":"Elk Mountain","ele":3550.0,"type":"peak","wikidata":"Q49027788"}},{"type":"Feature","geometry":{"type":"Point","coordinates":[-110.3607416,43.4138275]},"properties":{"name":"Black Peak","ele":3547.0,"type":"peak","wikidata":"Q49013927"}},{"type":"Feature","geometry":{"type":"Point","coordinates":[-111.6410209,38.6683069]},"properties":{"name":"Mount Marvine","ele":3543.0,"type":"peak"}},{"type":"Feature","geometry":{"type":"Point","coordinates":[-106.312807,40.3585936]},"properties":{"name":"Hyannis Peak","ele":3540.0,"type":"peak"}},{"type":"Feature","geometry":{"type":"Point","coordinates":[-118.1905016,36.4274757]},"properties":{"name":"Trail Peak","ele":3539.0,"type":"peak","wikidata":"Q49084597"}},{"type":"Feature","geometry":{"type":"Point","coordinates":[-140.6626642,61.9565554]},"properties":{"name":"Mount Taylor","ele":3534.0,"type":"peak"}},{"type":"Feature","geometry":{"type":"Point","coordinates":[-141.2484821,61.1158961]},"properties":{"name":"Mount Tittmann","ele":3534.0,"type":"peak"}},{"type":"Feature","geometry":{"type":"Point","coordinates":[-109.8782162,43.2752245]},"properties":{"name":"Big Sheep Mountain","ele":3533.0,"type":"peak","wikidata":"Q49012765"}},{"type":"Feature","geometry":{"type":"Point","coordinates":[-106.2058581,39.8774856]},"properties":{"name":"Williams Peak","ele":3530.0,"type":"peak","wikidata":"Q14685191"}},{"type":"Feature","geometry":{"type":"Point","coordinates":[-106.4975323,39.8188751]},"properties":{"name":"Piney Peak","ele":3525.0,"type":"peak"}},{"type":"Feature","geometry":{"type":"Point","coordinates":[-105.1472229,37.5827867]},"properties":{"name":"Mount Mestas","ele":3524.0,"type":"peak","wikidata":"Q14684996"}},{"type":"Feature","geometry":{"type":"Point","coordinates":[-109.124296,42.8652324]},"properties":{"name":"Hobbs Peak","ele":3523.0,"type":"peak","wikidata":"Q49036621"}},{"type":"Feature","geometry":{"type":"Point","coordinates":[-118.2012143,37.4985399]},"properties":{"name":"Campito Mountain","ele":3522.0,"type":"peak","wikidata":"Q35732678"}},{"type":"Feature","geometry":{"type":"Point","coordinates":[-105.5549977,38.8322151]},"properties":{"name":"Thirtynine Mile Mountain","ele":3517.0,"type":"peak","wikidata":"Q14685122"}},{"type":"Feature","geometry":{"type":"Point","coordinates":[-119.6512954,38.286189]},"properties":{"name":"Leavitt Peak","ele":3516.0,"type":"peak","wikidata":"Q6510805"}},{"type":"Feature","geometry":{"type":"Point","coordinates":[-107.4953374,38.2122145]},"properties":{"name":"High Mesa","ele":3515.0,"type":"peak"}},{"type":"Feature","geometry":{"type":"Point","coordinates":[-110.813588,38.108935]},"properties":{"name":"Mount Ellen","ele":3512.0,"type":"peak","wikidata":"Q8525257","wikipedia":"en:Mount Ellen (Utah)"}},{"type":"Feature","geometry":{"type":"Point","coordinates":[-109.8821249,44.9766081]},"properties":{"name":"Pilot Peak","ele":3512.0,"type":"peak","wikidata":"Q23018423"}},{"type":"Feature","geometry":{"type":"Point","coordinates":[-113.8100334,43.6994658]},"properties":{"name":"Smiley Mountain","ele":3507.64,"type":"peak","wikidata":"Q29045247","wikipedia":"en:Smiley Mountain"}},{"type":"Feature","geometry":{"type":"Point","coordinates":[-109.9576755,43.7485631]},"properties":{"name":"Pinnacle Buttes","ele":3504.0,"type":"peak","wikidata":"Q49062054"}},{"type":"Feature","geometry":{"type":"Point","coordinates":[-116.8249306,34.0992632]},"properties":{"name":"San Gorgonio Mountain","ele":3502.0,"type":"peak","wikidata":"Q3364408","wikipedia":"en:San Gorgonio Mountain"}},{"type":"Feature","geometry":{"type":"Point","coordinates":[-111.6567291,40.5519611]},"properties":{"name":"Twin Peaks (west)","ele":3501.8,"type":"peak"}},{"type":"Feature","geometry":{"type":"Point","coordinates":[-106.4794804,37.986941]},"properties":{"name":"Lookout Mountain","ele":3501.0,"type":"peak"}},{"type":"Feature","geometry":{"type":"Point","coordinates":[-109.7876602,43.4555063]},"properties":{"name":"Union Peak","ele":3501.0,"type":"peak","wikidata":"Q14951376"}},{"type":"Feature","geometry":{"type":"Point","coordinates":[-118.287779,36.3084512]},"properties":{"name":"Kern Peak","ele":3499.0,"type":"peak","wikidata":"Q49041307"}},{"type":"Feature","geometry":{"type":"Point","coordinates":[-106.5289192,38.4849944]},"properties":{"name":"Tomichi Dome","ele":3498.0,"type":"peak","wikidata":"Q7818878","wikipedia":"en:Tomichi Dome"}},{"type":"Feature","geometry":{"type":"Point","coordinates":[-117.1259849,39.2527371]},"properties":{"name":"Bunker Hill","ele":3498.0,"type":"peak","wikidata":"Q18379373"}},{"type":"Feature","geometry":{"type":"Point","coordinates":[-115.4244731,38.9099356]},"properties":{"name":"Currant Mountain","ele":3492.0,"type":"peak","wikidata":"Q5194968","wikipedia":"en:Currant Mountain"}},{"type":"Feature","geometry":{"type":"Point","coordinates":[-107.417556,39.7944257]},"properties":{"name":"Blair Mountain","ele":3492.0,"type":"peak","wikidata":"Q14684319"}},{"type":"Feature","geometry":{"type":"Point","coordinates":[-119.3495327,37.7774187]},"properties":{"name":"Vogelsang Peak","ele":3488.0,"type":"peak","wikidata":"Q18168475","wikipedia":"en:Vogelsang Peak"}},{"type":"Feature","geometry":{"type":"Point","coordinates":[-106.0036281,39.6358199]},"properties":{"name":"Tenderfoot Mountain","ele":3488.0,"type":"peak","wikidata":"Q49081883","wikipedia":"en:Tenderfoot Mountain"}},{"type":"Feature","geometry":{"type":"Point","coordinates":[-105.492774,39.6794327]},"properties":{"name":"Mestaa\u2019\u0117hehe  Mountain","ele":3484.0,"type":"peak"}},{"type":"Feature","geometry":{"type":"Point","coordinates":[-106.1283562,40.1619295]},"properties":{"name":"Elk Mountain","ele":3480.0,"type":"peak","wikidata":"Q14684477"}},{"type":"Feature","geometry":{"type":"Point","coordinates":[-152.4127071,61.4100715]},"properties":{"name":"Mount Torbert","ele":3479.0,"type":"peak","wikidata":"Q1666850"}},{"type":"Feature","geometry":{"type":"Point","coordinates":[-105.6842832,40.6292395]},"properties":{"name":"Crown Point","ele":3478.0,"type":"peak"}},{"type":"Feature","geometry":{"type":"Point","coordinates":[-106.4075307,36.8314021]},"properties":{"name":"Grouse Mesa","ele":3477.0,"type":"peak","wikidata":"Q49034123"}},{"type":"Feature","geometry":{"type":"Point","coordinates":[-109.5626186,33.9059539]},"properties":{"name":"Baldy Peak","ele":3477.0,"type":"peak","wikidata":"Q6919585"}},{"type":"Feature","geometry":{"type":"Point","coordinates":[-107.5228343,38.803045]},"properties":{"name":"Mount Lamborn","ele":3474.0,"type":"peak","wikidata":"Q8522946"}},{"type":"Feature","geometry":{"type":"Point","coordinates":[-110.7907882,37.956493]},"properties":{"name":"Mount Pennell","ele":3471.0,"type":"peak"}},{"type":"Feature","geometry":{"type":"Point","coordinates":[-110.6071786,40.5731329]},"properties":{"name":"Rock Creek","ele":3471.0,"type":"peak"}},{"type":"Feature","geometry":{"type":"Point","coordinates":[-109.9626842,44.3232793]},"properties":{"name":"Pinnacle Mountain","ele":3469.0,"type":"peak","wikidata":"Q49062118"}},{"type":"Feature","geometry":{"type":"Point","coordinates":[-110.6238862,42.604454]},"properties":{"name":"Wyoming Peak","ele":3468.0,"type":"peak","wikidata":"Q23950320","wikipedia":"en:Wyoming Peak"}},{"type":"Feature","geometry":{"type":"Point","coordinates":[-112.8216707,44.3535214]},"properties":{"name":"Scott Peak","ele":3468.0,"type":"peak","wikidata":"Q49072003"}},{"type":"Feature","geometry":{"type":"Point","coordinates":[-109.4626212,37.8394382]},"properties":{"name":"Abajo Peak","ele":3459.0,"type":"peak","wikidata":"Q129698"}},{"type":"Feature","geometry":{"type":"Point","coordinates":[-107.2439395,38.9299915]},"properties":{"name":"Marcellina Mountain","ele":3459.0,"type":"peak","wikidata":"Q14684943","wikipedia":"en:Marcellina Mountain"}},{"type":"Feature","geometry":{"type":"Point","coordinates":[-110.2298985,43.2816067]},"properties":{"name":"Tosi Peak","ele":3457.0,"type":"peak","wikidata":"Q49084393"}},{"type":"Feature","geometry":{"type":"Point","coordinates":[-112.4021535,38.1966411]},"properties":{"name":"Circleville Mountain","ele":3456.0,"type":"peak"}},{"type":"Feature","geometry":{"type":"Point","coordinates":[-107.6372811,38.3152671]},"properties":{"name":"Storm King","ele":3456.0,"type":"peak"}},{"type":"Feature","geometry":{"type":"Point","coordinates":[-118.6534663,36.5980509]},"properties":{"name":"Winter Alta","ele":3453.0,"type":"peak"}},{"type":"Feature","geometry":{"type":"Point","coordinates":[-110.7635468,43.9285454]},"properties":{"name":"Ranger Peak","ele":3453.0,"type":"peak","wikidata":"Q7292777","wikipedia":"en:Ranger Peak (Wyoming)"}},{"type":"Feature","geometry":{"type":"Point","coordinates":[-106.4780939,37.8338893]},"properties":{"name":"Blue Mountain","ele":3452.0,"type":"peak"}},{"type":"Feature","geometry":{"type":"Point","coordinates":[-111.5008562,38.1591667]},"properties":{"name":"Bluebell Knoll","ele":3447.0,"type":"peak"}},{"type":"Feature","geometry":{"type":"Point","coordinates":[-107.6631138,39.0397054]},"properties":{"name":"Crater Peak","ele":3447.0,"type":"peak","wikidata":"Q5182631"}},{"type":"Feature","geometry":{"type":"Point","coordinates":[-112.8313316,37.6810885]},"properties":{"name":"Brian Head","ele":3443.0,"type":"peak","wikidata":"Q4964000"}},{"type":"Feature","geometry":{"type":"Point","coordinates":[-105.5941703,39.1152688]},"properties":{"name":"Schoolmarm Mountain","ele":3442.0,"type":"peak"}},{"type":"Feature","geometry":{"type":"Point","coordinates":[-111.4792148,38.4169999]},"properties":{"name":"Thousand Lake Mountain","ele":3441.0,"type":"peak","wikidata":"Q7797053"}},{"type":"Feature","geometry":{"type":"Point","coordinates":[-115.1225499,40.9507562]},"properties":{"name":"Hole in the Mountain Peak","ele":3440.0,"type":"peak","wikidata":"Q5880013","wikipedia":"en:Hole in the Mountain Peak"}},{"type":"Feature","geometry":{"type":"Point","coordinates":[-110.1396325,45.306605]},"properties":{"name":"Mount Douglas","ele":3439.0,"type":"peak","wikidata":"Q6920485","wikipedia":"en:Mount Douglas (Montana)"}},{"type":"Feature","geometry":{"type":"Point","coordinates":[-113.5439196,44.4715877]},"properties":{"name":"Big Creek Peak","ele":3439.0,"type":"peak","wikidata":"Q4905502"}},{"type":"Feature","geometry":{"type":"Point","coordinates":[-113.7263098,43.8264798]},"properties":{"name":"Shelly Mountain","ele":3437.53,"type":"peak","wikidata":"Q49073185"}},{"type":"Feature","geometry":{"type":"Point","coordinates":[-106.5605895,35.8719672]},"properties":{"name":"Redondo Peak","ele":3434.0,"type":"peak","wikidata":"Q7306186"}},{"type":"Feature","geometry":{"type":"Point","coordinates":[-111.3574027,39.3921863]},"properties":{"name":"South Tent Mountain","ele":3434.0,"type":"peak"}},{"type":"Feature","geometry":{"type":"Point","coordinates":[-118.5151937,37.2468349]},"properties":{"name":"Lookout Mountain","ele":3432.0,"type":"peak","wikidata":"Q49046576"}},{"type":"Feature","geometry":{"type":"Point","coordinates":[-118.5692648,36.7477167]},"properties":{"name":"Palmer Mountain","ele":3430.0,"type":"peak","wikidata":"Q49059537"}},{"type":"Feature","geometry":{"type":"Point","coordinates":[-115.4750569,40.6218722]},"properties":{"name":"Ruby Dome","ele":3428.0,"type":"peak","wikidata":"Q7376306","wikipedia":"en:Ruby Dome"}},{"type":"Feature","geometry":{"type":"Point","coordinates":[-111.4588501,45.0371497]},"properties":{"name":"Taylor Peaks","ele":3428.0,"type":"peak","wikidata":"Q49081662"}},{"type":"Feature","geometry":{"type":"Point","coordinates":[-109.2681902,43.0755122]},"properties":{"name":"Mount Windy","ele":3427.0,"type":"peak","wikidata":"Q49055229"}},{"type":"Feature","geometry":{"type":"Point","coordinates":[-106.8301554,39.7723501]},"properties":{"name":"Castle Peak","ele":3426.0,"type":"peak","wikidata":"Q14684360"}},{"type":"Feature","geometry":{"type":"Point","coordinates":[-107.8439523,39.0794249]},"properties":{"name":"Leon Peak","ele":3425.0,"type":"peak"}},{"type":"Feature","geometry":{"type":"Point","coordinates":[-118.7915281,38.5701985]},"properties":{"name":"Mount Grant","ele":3421.0,"type":"peak"}},{"type":"Feature","geometry":{"type":"Point","coordinates":[-112.0732521,38.5360876]},"properties":{"name":"Monroe Peak","ele":3419.0,"type":"peak"}},{"type":"Feature","geometry":{"type":"Point","coordinates":[-152.4421643,61.5772271]},"properties":{"name":"Mount Gerdine","ele":3419.0,"type":"peak"}},{"type":"Feature","geometry":{"type":"Point","coordinates":[-110.5243642,43.5438251]},"properties":{"name":"Sheep Mountain","ele":3418.0,"type":"peak","wikidata":"Q7492416"}},{"type":"Feature","geometry":{"type":"Point","coordinates":[-109.9304593,45.1213293]},"properties":{"name":"Mount Fox","ele":3418.0,"type":"peak","wikidata":"Q49052740"}},{"type":"Feature","geometry":{"type":"Point","coordinates":[-110.4857743,45.3891087]},"properties":{"name":"Mount Cowen","ele":3417.0,"type":"peak","wikidata":"Q49052372"}},{"type":"Feature","geometry":{"type":"Point","coordinates":[-143.6915852,60.6565557]},"properties":{"name":"Mount Tom White","ele":3417.0,"type":"peak"}},{"type":"Feature","geometry":{"type":"Point","coordinates":[-114.2552712,38.8438377]},"properties":{"name":"Granite Peak","ele":3410.0,"type":"peak"}},{"type":"Feature","geometry":{"type":"Point","coordinates":[-107.3181102,39.6744265]},"properties":{"name":"Baxter Peak","ele":3409.0,"type":"peak"}},{"type":"Feature","geometry":{"type":"Point","coordinates":[-119.5809025,38.1575219]},"properties":{"name":"Forsyth Peak","ele":3408.3,"type":"peak","wikidata":"Q49030040"}},{"type":"Feature","geometry":{"type":"Point","coordinates":[-110.5702184,43.403244]},"properties":{"name":"Gros Peak","ele":3408.0,"type":"peak"}},{"type":"Feature","geometry":{"type":"Point","coordinates":[-109.8424034,44.5241123]},"properties":{"name":"Sleeping Giant Mountain","ele":3408.0,"type":"peak","wikidata":"Q49074545"}},{"type":"Feature","geometry":{"type":"Point","coordinates":[-110.2765851,46.0179951]},"properties":{"name":"Crazy Peak","ele":3407.0,"type":"peak","wikidata":"Q3382297","wikipedia":"en:Crazy Peak"}},{"type":"Feature","geometry":{"type":"Point","coordinates":[-118.7036932,37.7663564]},"properties":{"name":"Glass Mountain Ridge HP","ele":3402.0,"type":"peak"}},{"type":"Feature","geometry":{"type":"Point","coordinates":[-109.7123984,44.6963348]},"properties":{"name":"Geers Point","ele":3401.0,"type":"peak","wikidata":"Q49031243"}},{"type":"Feature","geometry":{"type":"Point","coordinates":[-111.4537968,39.1149665]},"properties":{"name":"Heliotrope Mountain","ele":3399.0,"type":"peak"}},{"type":"Feature","geometry":{"type":"Point","coordinates":[-111.4502991,45.2780565]},"properties":{"name":"Lone Mountain","ele":3397.0,"type":"peak","wikidata":"Q49046119"}},{"type":"Feature","geometry":{"type":"Point","coordinates":[-112.9653129,45.4804807]},"properties":{"name":"Tweedy Mountain","ele":3394.0,"type":"peak","wikidata":"Q49085730"}},{"type":"Feature","geometry":{"type":"Point","coordinates":[-118.0078843,37.0217879]},"properties":{"name":"Waucoba Mountain","ele":3392.0,"type":"peak","wikidata":"Q24191793"}},{"type":"Feature","geometry":{"type":"Point","coordinates":[-110.5796349,42.792745]},"properties":{"name":"Triple Peak","ele":3391.5,"type":"peak","wikidata":"Q49084902"}},{"type":"Feature","geometry":{"type":"Point","coordinates":[-106.9230318,39.1709907]},"properties":{"name":"Burnt Mountain","ele":3391.0,"type":"peak"}},{"type":"Feature","geometry":{"type":"Point","coordinates":[-106.5264131,41.6332972]},"properties":{"name":"Elk Mountain","ele":3390.0,"type":"peak","wikidata":"Q5364056","wikipedia":"en:Elk Mountain (Carbon County, Wyoming)"}},{"type":"Feature","geometry":{"type":"Point","coordinates":[-106.2691991,37.4397271]},"properties":{"name":"Greenie Mountain","ele":3389.0,"type":"peak"}},{"type":"Feature","geometry":{"type":"Point","coordinates":[-107.3333902,40.1397017]},"properties":{"name":"Pagoda Peak","ele":3388.0,"type":"peak"}},{"type":"Feature","geometry":{"type":"Point","coordinates":[-114.6036738,43.8896304]},"properties":{"name":"Galena Peak","ele":3387.0,"type":"peak","wikidata":"Q49030912"}},{"type":"Feature","geometry":{"type":"Point","coordinates":[-113.8889276,44.2863512]},"properties":{"name":"Pavlos Peak","ele":3386.0232,"type":"peak"}},{"type":"Feature","geometry":{"type":"Point","coordinates":[-117.9623075,36.7074324]},"properties":{"name":"Keynot Peak","ele":3382.0,"type":"peak","wikidata":"Q49041380"}},{"type":"Feature","geometry":{"type":"Point","coordinates":[-118.71158,36.876503]},"properties":{"name":"Hogback Peak","ele":3376.0,"type":"peak","wikidata":"Q49036754"}},{"type":"Feature","geometry":{"type":"Point","coordinates":[-108.9856817,42.7671787]},"properties":{"name":"Mount Arter","ele":3374.0,"type":"peak","wikidata":"Q49051914"}},{"type":"Feature","geometry":{"type":"Point","coordinates":[-117.0892101,36.1698466]},"properties":{"name":"Telescope Peak","ele":3369.0,"type":"peak","wikidata":"Q916811"}},{"type":"Feature","geometry":{"type":"Point","coordinates":[-112.2174237,38.0205358]},"properties":{"name":"Mount Dutton","ele":3366.0,"type":"peak"}},{"type":"Feature","geometry":{"type":"Point","coordinates":[-111.5466105,40.2481141]},"properties":{"name":"East Provo Peak","ele":3366.0,"type":"peak"}},{"type":"Feature","geometry":{"type":"Point","coordinates":[-112.6263086,40.4594905]},"properties":{"name":"Deseret Peak","ele":3362.2,"type":"peak","wikidata":"Q1200569","wikipedia":"en:Deseret_Peak"}},{"type":"Feature","geometry":{"type":"Point","coordinates":[-105.7160148,40.7702881]},"properties":{"name":"Killpecker Mountain","ele":3359.0,"type":"peak"}},{"type":"Feature","geometry":{"type":"Point","coordinates":[-107.8672887,39.3713682]},"properties":{"name":"South Mamm Peak","ele":3358.0,"type":"peak"}},{"type":"Feature","geometry":{"type":"Point","coordinates":[-109.7490643,44.1310596]},"properties":{"name":"Kingfisher Peak","ele":3357.0,"type":"peak","wikidata":"Q49041733"}},{"type":"Feature","geometry":{"type":"Point","coordinates":[-119.5485024,38.4057459]},"properties":{"name":"Lost Cannon Peak","ele":3355.0,"type":"peak","wikidata":"Q49046885"}},{"type":"Feature","geometry":{"type":"Point","coordinates":[-106.2997519,38.0191663]},"properties":{"name":"Tracy Mountain","ele":3353.0,"type":"peak"}},{"type":"Feature","geometry":{"type":"Point","coordinates":[-139.4328599,60.1907911]},"properties":{"name":"Mount Foresta","ele":3353.0,"type":"peak"}},{"type":"Feature","geometry":{"type":"Point","coordinates":[-107.332575,44.5463545]},"properties":{"name":"Elk Peak","ele":3352.0,"type":"peak","wikidata":"Q49027841"}},{"type":"Feature","geometry":{"type":"Point","coordinates":[-109.9290728,44.6666106]},"properties":{"name":"Pollux Peak","ele":3348.0,"type":"peak","wikidata":"Q49063098"}},{"type":"Feature","geometry":{"type":"Point","coordinates":[-112.9961735,44.4473932]},"properties":{"name":"Eighteenmile Peak","ele":3347.0,"type":"peak"}},{"type":"Feature","geometry":{"type":"Point","coordinates":[-109.350134,42.7816164]},"properties":{"name":"Twin Buttes","ele":3347.0,"type":"peak","wikidata":"Q49085972"}},{"type":"Feature","geometry":{"type":"Point","coordinates":[-107.9731221,37.9913814]},"properties":{"name":"Gray Head","ele":3346.0,"type":"peak"}},{"type":"Feature","geometry":{"type":"Point","coordinates":[-113.8664472,44.7804815]},"properties":{"name":"Lem Peak","ele":3346.0,"type":"peak","wikidata":"Q49043942"}},{"type":"Feature","geometry":{"type":"Point","coordinates":[-106.3766063,39.5999475]},"properties":{"name":"Ptarmigan Point","ele":3345.0,"type":"peak"}},{"type":"Feature","geometry":{"type":"Point","coordinates":[-109.4197067,44.9895698]},"properties":{"name":"Wymont","ele":3344.0,"type":"peak"}},{"type":"Feature","geometry":{"type":"Point","coordinates":[-114.7425065,38.6921711]},"properties":{"name":"Mount Grafton","ele":3343.0,"type":"peak","wikidata":"Q6920960","wikipedia":"en:Mount Grafton"}},{"type":"Feature","geometry":{"type":"Point","coordinates":[-112.6211156,44.5201881]},"properties":{"name":"Garfield Mountain","ele":3341.0,"type":"peak","wikidata":"Q49031075"}},{"type":"Feature","geometry":{"type":"Point","coordinates":[-110.8374375,45.0052113]},"properties":{"name":"Electric Peak","ele":3341.0,"type":"peak","wikidata":"Q1027558"}},{"type":"Feature","geometry":{"type":"Point","coordinates":[-107.0318397,41.1864427]},"properties":{"name":"Bridger Peak","ele":3341.0,"type":"peak","wikidata":"Q49015398"}},{"type":"Feature","geometry":{"type":"Point","coordinates":[-106.0416857,40.4683156]},"properties":{"name":"Owl Mountain","ele":3338.0,"type":"peak"}},{"type":"Feature","geometry":{"type":"Point","coordinates":[-115.5000269,38.3188316]},"properties":{"name":"Troy Peak","ele":3336.0,"type":"peak","wikidata":"Q2254075"}},{"type":"Feature","geometry":{"type":"Point","coordinates":[-105.9158431,38.6299963]},"properties":{"name":"Cameron Mountain","ele":3331.0,"type":"peak"}},{"type":"Feature","geometry":{"type":"Point","coordinates":[-117.2062657,39.1146264]},"properties":{"name":"Toiyabe Range Peak","ele":3330.0,"type":"peak"}},{"type":"Feature","geometry":{"type":"Point","coordinates":[-105.5536101,39.8691541]},"properties":{"name":"Dakota Hill","ele":3330.0,"type":"peak"}},{"type":"Feature","geometry":{"type":"Point","coordinates":[-141.6124118,61.6250178]},"properties":{"name":"Mount Sulzer","ele":3330.0,"type":"peak"}},{"type":"Feature","geometry":{"type":"Point","coordinates":[-106.6480904,38.2902721]},"properties":{"name":"Green Mountain","ele":3329.0,"type":"peak"}},{"type":"Feature","geometry":{"type":"Point","coordinates":[-110.904658,43.5674261]},"properties":{"name":"Rendezvous Peak","ele":3328.0,"type":"peak","wikidata":"Q7312830"}},{"type":"Feature","geometry":{"type":"Point","coordinates":[-110.7071567,45.2629929]},"properties":{"name":"Emigrant Peak","ele":3327.0,"type":"peak","wikidata":"Q8530317","wikipedia":"en:Emigrant Peak"}},{"type":"Feature","geometry":{"type":"Point","coordinates":[-106.6839272,41.0333024]},"properties":{"name":"Blackhall Mountain","ele":3327.0,"type":"peak","wikidata":"Q49014060"}},{"type":"Feature","geometry":{"type":"Point","coordinates":[-106.3516952,36.5683493]},"properties":{"name":"Canjilon Mountain","ele":3326.0,"type":"peak","wikidata":"Q5032496"}},{"type":"Feature","geometry":{"type":"Point","coordinates":[-106.0189076,36.8597379]},"properties":{"name":"San Antonio Mountain","ele":3326.0,"type":"peak","wikidata":"Q15274746","wikipedia":"en:San Antonio Mountain (New Mexico)"}},{"type":"Feature","geometry":{"type":"Point","coordinates":[-109.126441,33.956762]},"properties":{"name":"Escudilla Mountain","ele":3326.0,"type":"peak","wikidata":"Q5397433"}},{"type":"Feature","geometry":{"type":"Point","coordinates":[-115.4706087,40.4765955]},"properties":{"name":"King Peak","ele":3326.0,"type":"peak","wikidata":"Q6411935"}},{"type":"Feature","geometry":{"type":"Point","coordinates":[-114.3603364,44.0643604]},"properties":{"name":"Sheep Mountain","ele":3325.0,"type":"peak","wikidata":"Q49072909"}},{"type":"Feature","geometry":{"type":"Point","coordinates":[-110.7763911,42.7239703]},"properties":{"name":"Mount Fitzpatrick","ele":3324.5,"type":"peak","wikidata":"Q8530032","wikipedia":"en:Mount Fitzpatrick"}},{"type":"Feature","geometry":{"type":"Point","coordinates":[-119.7554967,38.5436921]},"properties":{"name":"Highland Peak","ele":3324.0,"type":"peak","wikidata":"Q49036458"}},{"type":"Feature","geometry":{"type":"Point","coordinates":[-114.6452887,39.2585518]},"properties":{"name":"Cleve Creek Baldy","ele":3324.0,"type":"peak"}},{"type":"Feature","geometry":{"type":"Point","coordinates":[-114.9211283,39.100219]},"properties":{"name":"Ward Mountain","ele":3322.0,"type":"peak","wikidata":"Q7969053","wikipedia":"en:Ward Mountain (Nevada)"}},{"type":"Feature","geometry":{"type":"Point","coordinates":[-107.057519,40.763495]},"properties":{"name":"McFaddin Peak","ele":3316.0,"type":"peak"}},{"type":"Feature","geometry":{"type":"Point","coordinates":[-110.1181637,43.9438078]},"properties":{"name":"Soda Mountain","ele":3313.0,"type":"peak","wikidata":"Q49075421"}},{"type":"Feature","geometry":{"type":"Point","coordinates":[-113.2872438,44.3904702]},"properties":{"name":"Sheep Mountain","ele":3311.0,"type":"peak","wikidata":"Q49072916"}},{"type":"Feature","geometry":{"type":"Point","coordinates":[-110.5704353,43.0844235]},"properties":{"name":"Hoback Peak","ele":3310.7,"type":"peak","wikidata":"Q49036607"}},{"type":"Feature","geometry":{"type":"Point","coordinates":[-108.641724,33.323675]},"properties":{"name":"Whitewater Baldy","ele":3310.0,"type":"peak","wikidata":"Q7996324","wikipedia":"en:Whitewater Baldy"}},{"type":"Feature","geometry":{"type":"Point","coordinates":[-107.0119905,39.4127618]},"properties":{"name":"Basalt Mountain","ele":3310.0,"type":"peak"}},{"type":"Feature","geometry":{"type":"Point","coordinates":[-119.4848058,37.8751839]},"properties":{"name":"Tuolumne Peak","ele":3309.0,"type":"peak","wikidata":"Q49085262"}},{"type":"Feature","geometry":{"type":"Point","coordinates":[-106.5889301,37.7294473]},"properties":{"name":"Agua Ramon Mountain","ele":3309.0,"type":"peak"}},{"type":"Feature","geometry":{"type":"Point","coordinates":[-106.8489355,40.824138]},"properties":{"name":"Farwell Mountain","ele":3309.0,"type":"peak"}},{"type":"Feature","geometry":{"type":"Point","coordinates":[-111.0004548,40.8699483]},"properties":{"name":"Humpy Peak","ele":3306.0,"type":"peak","wikidata":"Q5941840"}},{"type":"Feature","geometry":{"type":"Point","coordinates":[-119.9002147,38.8575348]},"properties":{"name":"Freel Peak","ele":3305.0,"type":"peak","wikidata":"Q8526079","wikipedia":"en:Freel Peak"}},{"type":"Feature","geometry":{"type":"Point","coordinates":[-107.9445147,37.4394433]},"properties":{"name":"Monument Hill","ele":3305.0,"type":"peak"}},{"type":"Feature","geometry":{"type":"Point","coordinates":[-111.2489546,42.4954345]},"properties":{"name":"Meade Peak","ele":3305.0,"type":"peak","wikidata":"Q49049013"}},{"type":"Feature","geometry":{"type":"Point","coordinates":[-105.1122016,38.714989]},"properties":{"name":"Big Bull Mountain","ele":3303.0,"type":"peak"}},{"type":"Feature","geometry":{"type":"Point","coordinates":[-106.6786461,39.5358185]},"properties":{"name":"Porphyry Mountain","ele":3302.0,"type":"peak"}},{"type":"Feature","geometry":{"type":"Point","coordinates":[-107.0474454,25.9559917]},"properties":{"name":"Cerro Mohinora","ele":3300.0,"type":"peak","wikidata":"Q3701931","wikipedia":"en:Cerro Mohinora"}},{"type":"Feature","geometry":{"type":"Point","coordinates":[-106.0832138,26.3928885]},"properties":{"name":"Cerro Barajas","ele":3300.0,"type":"peak"}},{"type":"Feature","geometry":{"type":"Point","coordinates":[-105.5013881,38.992492]},"properties":{"name":"Stoll Mountain","ele":3299.0,"type":"peak"}},{"type":"Feature","geometry":{"type":"Point","coordinates":[-107.3875618,40.7913581]},"properties":{"name":"Black Mountain","ele":3299.0,"type":"peak"}},{"type":"Feature","geometry":{"type":"Point","coordinates":[-107.5336727,40.127477]},"properties":{"name":"Sleepy Cat Peak","ele":3295.0,"type":"peak","wikidata":"Q14685093","wikipedia":"en:Sleepy Cat Peak"}},{"type":"Feature","geometry":{"type":"Point","coordinates":[-106.7167119,40.5516436]},"properties":{"name":"Soda Mountain","ele":3295.0,"type":"peak"}},{"type":"Feature","geometry":{"type":"Point","coordinates":[-112.9545958,43.9373107]},"properties":{"name":"Saddle Mountain","ele":3294.888,"type":"peak","wikidata":"Q49070666"}},{"type":"Feature","geometry":{"type":"Point","coordinates":[-106.0777938,40.8283103]},"properties":{"name":"Shipman Mountain","ele":3294.0,"type":"peak"}},{"type":"Feature","geometry":{"type":"Point","coordinates":[-105.65471,36.2470732]},"properties":{"name":"Picuris Peak","ele":3292.0,"type":"peak","wikidata":"Q49061096"}},{"type":"Feature","geometry":{"type":"Point","coordinates":[-106.5175243,41.4524659]},"properties":{"name":"Kennaday Peak","ele":3290.0,"type":"peak","wikidata":"Q49041200"}},{"type":"Feature","geometry":{"type":"Point","coordinates":[-107.5222772,39.1972046]},"properties":{"name":"Spruce Mountain","ele":3290.0,"type":"peak"}},{"type":"Feature","geometry":{"type":"Point","coordinates":[-116.679407,33.8147121]},"properties":{"name":"San Jacinto Peak","ele":3288.0,"type":"peak","wikidata":"Q7414344","wikipedia":"en:San Jacinto Peak"}},{"type":"Feature","geometry":{"type":"Point","coordinates":[-113.3950606,45.9627012]},"properties":{"name":"West Goat Peak","ele":3287.0,"type":"peak"}},{"type":"Feature","geometry":{"type":"Point","coordinates":[-115.5419942,40.2352076]},"properties":{"name":"Pearl Peak","ele":3285.0,"type":"peak","wikidata":"Q48773542","wikipedia":"en:Pearl Peak"}},{"type":"Feature","geometry":{"type":"Point","coordinates":[-119.9179552,39.3438114]},"properties":{"name":"Mount Rose","ele":3285.0,"type":"peak","wikidata":"Q8526141"}},{"type":"Feature","geometry":{"type":"Point","coordinates":[-113.0883538,44.5996404]},"properties":{"name":"Baldy Mountain","ele":3280.0,"type":"peak","wikidata":"Q49010426"}},{"type":"Feature","geometry":{"type":"Point","coordinates":[-107.1880017,33.9910002]},"properties":{"name":"South Baldy","ele":3279.0,"type":"peak","wikidata":"Q7566229"}},{"type":"Feature","geometry":{"type":"Point","coordinates":[-111.8882445,37.9052634]},"properties":{"name":"Griffin Top","ele":3274.0,"type":"peak"}},{"type":"Feature","geometry":{"type":"Point","coordinates":[-109.8318265,43.1280291]},"properties":{"name":"Doubletop Mountain","ele":3274.0,"type":"peak","wikidata":"Q49025655"}},{"type":"Feature","geometry":{"type":"Point","coordinates":[-113.6889592,44.6565075]},"properties":{"name":"Buffalo Skull Peak","ele":3272.028,"type":"peak"}},{"type":"Feature","geometry":{"type":"Point","coordinates":[-111.2168394,39.4755211]},"properties":{"name":"East Mountain","ele":3272.0,"type":"peak"}},{"type":"Feature","geometry":{"type":"Point","coordinates":[-105.3981899,39.5319295]},"properties":{"name":"Black Mountain","ele":3271.0,"type":"peak"}},{"type":"Feature","geometry":{"type":"Point","coordinates":[-110.3521732,45.2607032]},"properties":{"name":"Crow Mountain","ele":3269.0,"type":"peak","wikidata":"Q49023127"}},{"type":"Feature","geometry":{"type":"Point","coordinates":[-114.9825801,44.011016]},"properties":{"name":"Mount Cramer","ele":3266.0,"type":"peak","wikidata":"Q8528285","wikipedia":"en:Mount Cramer"}},{"type":"Feature","geometry":{"type":"Point","coordinates":[-109.8713876,32.7016419]},"properties":{"name":"Mount Graham","ele":3264.07,"type":"peak","wikidata":"Q1418537"}},{"type":"Feature","geometry":{"type":"Point","coordinates":[-115.5417044,39.2321546]},"properties":{"name":"Mount Hamilton","ele":3261.0,"type":"peak"}},{"type":"Feature","geometry":{"type":"Point","coordinates":[-142.3014345,60.4605013]},"properties":{"name":"Mount Miller","ele":3261.0,"type":"peak","wikipedia":"en:Mount_Miller"}},{"type":"Feature","geometry":{"type":"Point","coordinates":[-113.3697324,43.9760169]},"properties":{"name":"Sunset Peak","ele":3260.0,"type":"peak","wikidata":"Q49080229"}},{"type":"Feature","geometry":{"type":"Point","coordinates":[-110.1040442,40.6680054]},"properties":{"name":"Goose Egg Peak","ele":3258.0,"type":"peak","wikidata":"Q49032334"}},{"type":"Feature","geometry":{"type":"Point","coordinates":[-106.4496247,35.2100245]},"properties":{"name":"Sandia Crest","ele":3255.0,"type":"peak","wikidata":"Q104720600"}},{"type":"Feature","geometry":{"type":"Point","coordinates":[-110.1151883,45.0318833]},"properties":{"name":"Cutoff Mountain","ele":3251.0,"type":"peak"}},{"type":"Feature","geometry":{"type":"Point","coordinates":[-115.3753447,41.8107405]},"properties":{"name":"Matterhorn","ele":3250.0,"type":"peak","wikidata":"Q14514922","wikipedia":"en:Matterhorn (Nevada)"}},{"type":"Feature","geometry":{"type":"Point","coordinates":[-118.8629586,36.9872756]},"properties":{"name":"Castle Peak","ele":3249.0,"type":"peak","wikidata":"Q35733062"}},{"type":"Feature","geometry":{"type":"Point","coordinates":[-109.3801399,43.2149561]},"properties":{"name":"Bold Mountain","ele":3249.0,"type":"peak","wikidata":"Q49014722"}},{"type":"Feature","geometry":{"type":"Point","coordinates":[-111.6237204,39.9834009]},"properties":{"name":"Santaquin Peak","ele":3248.0,"type":"peak"}},{"type":"Feature","geometry":{"type":"Point","coordinates":[-106.1665042,41.4414926]},"properties":{"name":"Woolf Benchmark","ele":3245.0,"type":"peak"}},{"type":"Feature","geometry":{"type":"Point","coordinates":[-115.005919,44.1524062]},"properties":{"name":"Williams Peak","ele":3241.0,"type":"peak","wikidata":"Q8021081","wikipedia":"en:Williams Peak (Custer County, Idaho)"}},{"type":"Feature","geometry":{"type":"Point","coordinates":[-106.6575409,40.2235948]},"properties":{"name":"Gore Mountain","ele":3237.0,"type":"peak"}},{"type":"Feature","geometry":{"type":"Point","coordinates":[-147.8516858,61.5760883]},"properties":{"name":"Mount Sergeant Robinson","ele":3237.0,"type":"peak"}},{"type":"Feature","geometry":{"type":"Point","coordinates":[-110.103523,44.5241108]},"properties":{"name":"Silvertip Peak","ele":3235.0,"type":"peak","wikidata":"Q49074012"}},{"type":"Feature","geometry":{"type":"Point","coordinates":[-112.1889715,40.3724025]},"properties":{"name":"Flat Top Mountain","ele":3235.0,"type":"peak","wikipedia":"en:Flat_Top_Mountain_(Utah)"}},{"type":"Feature","geometry":{"type":"Point","coordinates":[-114.0777894,41.021037]},"properties":{"name":"Pilot Peak","ele":3235.0,"type":"peak","wikidata":"Q7194444","wikipedia":"en:Pilot_Peak_(Nevada)"}},{"type":"Feature","geometry":{"type":"Point","coordinates":[-113.2738949,43.7782349]},"properties":{"name":"King Mountain","ele":3235.0,"type":"peak","wikidata":"Q49041684"}},{"type":"Feature","geometry":{"type":"Point","coordinates":[-111.1442616,40.6770297]},"properties":{"name":"Duke Benchmark","ele":3235.0,"type":"peak"}},{"type":"Feature","geometry":{"type":"Point","coordinates":[-113.6772854,45.3113108]},"properties":{"name":"Homer Youngs Peak","ele":3234.0,"type":"peak","wikidata":"Q49036910"}},{"type":"Feature","geometry":{"type":"Point","coordinates":[-147.9855249,61.3274844]},"properties":{"name":"Mount Goode","ele":3234.0,"type":"peak"}},{"type":"Feature","geometry":{"type":"Point","coordinates":[-113.0964372,46.0871474]},"properties":{"name":"Mount Haggin","ele":3233.0,"type":"peak"}},{"type":"Feature","geometry":{"type":"Point","coordinates":[-106.2397474,36.7430707]},"properties":{"name":"Jawbone Mountain","ele":3232.0,"type":"peak","wikidata":"Q49039614"}},{"type":"Feature","geometry":{"type":"Point","coordinates":[-107.5111653,39.3358143]},"properties":{"name":"Flagpole Mountain","ele":3232.0,"type":"peak"}},{"type":"Feature","geometry":{"type":"Point","coordinates":[-105.4597165,40.5344271]},"properties":{"name":"Lookout Mountain","ele":3230.0,"type":"peak"}},{"type":"Feature","geometry":{"type":"Point","coordinates":[-105.3936085,39.11638]},"properties":{"name":"Pilot Peak","ele":3229.0,"type":"peak"}},{"type":"Feature","geometry":{"type":"Point","coordinates":[-105.4672372,35.9691971]},"properties":{"name":"Pyramid Peak","ele":3227.0,"type":"peak","wikidata":"Q49065825"}},{"type":"Feature","geometry":{"type":"Point","coordinates":[-111.0082208,40.4080024]},"properties":{"name":"Red Creek Mountain","ele":3227.0,"type":"peak","wikidata":"Q49067194"}},{"type":"Feature","geometry":{"type":"Point","coordinates":[-112.1238721,44.8943608]},"properties":{"name":"Hogback Mountain","ele":3224.0,"type":"peak","wikidata":"Q49036738"}},{"type":"Feature","geometry":{"type":"Point","coordinates":[-112.70744,37.7899764]},"properties":{"name":"Horse Valley Peak","ele":3223.0,"type":"peak"}},{"type":"Feature","geometry":{"type":"Point","coordinates":[-107.6811707,38.11027]},"properties":{"name":"Baldy Peak","ele":3223.0,"type":"peak"}},{"type":"Feature","geometry":{"type":"Point","coordinates":[-115.8186631,39.5852067]},"properties":{"name":"Diamond Peak","ele":3223.0,"type":"peak","wikidata":"Q18210087"}},{"type":"Feature","geometry":{"type":"Point","coordinates":[-107.380331,39.4263707]},"properties":{"name":"Sunlight Peak","ele":3223.0,"type":"peak"}},{"type":"Feature","geometry":{"type":"Point","coordinates":[-106.0172385,39.1058259]},"properties":{"name":"Black Mountain","ele":3223.0,"type":"peak"}},{"type":"Feature","geometry":{"type":"Point","coordinates":[-105.2638851,38.119169]},"properties":{"name":"Arkansas Mountain","ele":3222.0,"type":"peak"}},{"type":"Feature","geometry":{"type":"Point","coordinates":[-112.0430432,45.5654814]},"properties":{"name":"Granite Peak","ele":3218.0,"type":"peak","wikidata":"Q49032841"}},{"type":"Feature","geometry":{"type":"Point","coordinates":[-106.1077981,38.1513887]},"properties":{"name":"Saguache Peak","ele":3217.0,"type":"peak"}},{"type":"Feature","geometry":{"type":"Point","coordinates":[-115.3067194,40.7140923]},"properties":{"name":"Old Man of the Mountain","ele":3216.0,"type":"peak","wikidata":"Q49058487"}},{"type":"Feature","geometry":{"type":"Point","coordinates":[-119.0608193,37.1412206]},"properties":{"name":"Three Sisters","ele":3215.0,"type":"peak","wikidata":"Q49083446"}},{"type":"Feature","geometry":{"type":"Point","coordinates":[-105.8064076,35.6722544]},"properties":{"name":"Thompson Peak","ele":3215.0,"type":"peak","wikidata":"Q49083256"}},{"type":"Feature","geometry":{"type":"Point","coordinates":[-137.542132,59.1064275]},"properties":{"name":"Unmarked Boundary Point 166","ele":3215.0,"type":"peak","wikidata":"Q55623920","wikipedia":"en:Mount Lodge (Yakutat)"}},{"type":"Feature","geometry":{"type":"Point","coordinates":[-107.045616,44.0991325]},"properties":{"name":"Hazelton Pyramid","ele":3211.0,"type":"peak","wikidata":"Q49035720"}},{"type":"Feature","geometry":{"type":"Point","coordinates":[-143.0921219,60.5205373]},"properties":{"name":"Mount Steller","ele":3205.0,"type":"peak","wikidata":"Q6923851","wikipedia":"en:Mount Steller (Chugach Mountains)"}},{"type":"Feature","geometry":{"type":"Point","coordinates":[-116.7836918,39.0343739]},"properties":{"name":"Masket Peak","ele":3200.0,"type":"peak"}},{"type":"Feature","geometry":{"type":"Point","coordinates":[-110.056576,44.9032735]},"properties":{"name":"The Thunderer","ele":3199.0,"type":"peak","wikidata":"Q7769180","wikipedia":"en:The Thunderer (Wyoming)"}},{"type":"Feature","geometry":{"type":"Point","coordinates":[-99.9542202,24.2591841]},"properties":{"name":"Cerro Grande","ele":3198.0,"type":"peak"}},{"type":"Feature","geometry":{"type":"Point","coordinates":[-106.3269741,36.971123]},"properties":{"name":"Toltec Mesa","ele":3197.0,"type":"peak","wikidata":"Q49084191"}},{"type":"Feature","geometry":{"type":"Point","coordinates":[-111.8549726,44.9043649]},"properties":{"name":"Black Butte","ele":3197.0,"type":"peak","wikidata":"Q19867254","wikipedia":"en:Black Butte (Madison County, Montana)"}},{"type":"Feature","geometry":{"type":"Point","coordinates":[-109.6110027,44.9549444]},"properties":{"name":"Beartooth Butte","ele":3195.0,"type":"peak","wikidata":"Q49011605"}},{"type":"Feature","geometry":{"type":"Point","coordinates":[-111.4354635,39.2691298]},"properties":{"name":"Swedish Knoll","ele":3192.0,"type":"peak"}},{"type":"Feature","geometry":{"type":"Point","coordinates":[-107.4789432,37.3711136]},"properties":{"name":"Indian Mountain","ele":3191.0,"type":"peak"}},{"type":"Feature","geometry":{"type":"Point","coordinates":[-109.8040676,44.8468883]},"properties":{"name":"Hurricane Mesa","ele":3191.0,"type":"peak","wikidata":"Q49038134"}},{"type":"Feature","geometry":{"type":"Point","coordinates":[-113.8480556,48.925]},"properties":{"name":"Mount Cleveland","ele":3190.0,"type":"peak","wikidata":"Q3321762","wikipedia":"en:Mount Cleveland (Montana)"}},{"type":"Feature","geometry":{"type":"Point","coordinates":[-111.2457847,44.9304829]},"properties":{"name":"Sage Peak","ele":3189.0,"type":"peak"}},{"type":"Feature","geometry":{"type":"Point","coordinates":[-110.7013222,45.112992]},"properties":{"name":"Sheep Mountain","ele":3189.0,"type":"peak","wikidata":"Q49072950"}},{"type":"Feature","geometry":{"type":"Point","coordinates":[-104.945807,38.7252667]},"properties":{"name":"Knights Peak","ele":3188.0,"type":"peak"}},{"type":"Feature","geometry":{"type":"Point","coordinates":[-105.4227871,36.4083629]},"properties":{"name":"Capulin Peak","ele":3185.0,"type":"peak","wikidata":"Q49018077"}},{"type":"Feature","geometry":{"type":"Point","coordinates":[-115.9736972,41.5215735]},"properties":{"name":"McAfee Peak","ele":3183.0,"type":"peak","wikidata":"Q14705212","wikipedia":"en:McAfee Peak"}},{"type":"Feature","geometry":{"type":"Point","coordinates":[-114.4959283,44.5748671]},"properties":{"name":"White Mountain West","ele":3183.0,"type":"peak","wikidata":"Q55637617","wikipedia":"en:White Mountain (Idaho)"}},{"type":"Feature","geometry":{"type":"Point","coordinates":[-111.1762832,39.6138528]},"properties":{"name":"Monument Peak","ele":3176.0,"type":"peak"}},{"type":"Feature","geometry":{"type":"Point","coordinates":[-111.2841219,45.3557619]},"properties":{"name":"Jumbo Mountain","ele":3175.0,"type":"peak"}},{"type":"Feature","geometry":{"type":"Point","coordinates":[-105.3002732,39.3052676]},"properties":{"name":"Green Mountain","ele":3174.0,"type":"peak","wikidata":"Q14684539"}},{"type":"Feature","geometry":{"type":"Point","coordinates":[-150.3481204,63.1342305]},"properties":{"name":"Mount Eldridge","ele":3168.0,"type":"peak","wikidata":"Q14680151"}},{"type":"Feature","geometry":{"type":"Point","coordinates":[-112.9878145,45.6293699]},"properties":{"name":"Black Lion Mountain","ele":3167.0,"type":"peak","wikidata":"Q49013507"}},{"type":"Feature","geometry":{"type":"Point","coordinates":[-106.6110421,40.4270683]},"properties":{"name":"Rabbit Ears Peak","ele":3166.0,"type":"peak"}},{"type":"Feature","geometry":{"type":"Point","coordinates":[-120.0010186,38.6636245]},"properties":{"name":"Round Top","ele":3164.0,"type":"peak","wikidata":"Q49069985","wikipedia":"en:Round Top (Alpine County, California)"}},{"type":"Feature","geometry":{"type":"Point","coordinates":[-116.4614607,39.3765955]},"properties":{"name":"Summit Mountain","ele":3164.0,"type":"peak"}},{"type":"Feature","geometry":{"type":"Point","coordinates":[-107.0061586,38.190828]},"properties":{"name":"Polepatch Hill","ele":3161.0,"type":"peak"}},{"type":"Feature","geometry":{"type":"Point","coordinates":[-99.9420979,24.5184043]},"properties":{"name":"Cerro El Infiernillo","ele":3161.0,"type":"peak"}},{"type":"Feature","geometry":{"type":"Point","coordinates":[-142.7440423,61.8583212]},"properties":{"name":"Presidents Chair","ele":3161.0,"type":"peak"}},{"type":"Feature","geometry":{"type":"Point","coordinates":[-106.8183722,39.2833191]},"properties":{"name":"Vagneur Mountain","ele":3160.0,"type":"peak"}},{"type":"Feature","geometry":{"type":"Point","coordinates":[-142.2282427,61.7723784]},"properties":{"name":"Frederika Mountain","ele":3160.0,"type":"peak"}},{"type":"Feature","geometry":{"type":"Point","coordinates":[-112.9382784,37.569422]},"properties":{"name":"Black Mountain","ele":3159.0,"type":"peak"}},{"type":"Feature","geometry":{"type":"Point","coordinates":[-113.4924578,37.3194693]},"properties":{"name":"Signal Peak","ele":3159.0,"type":"peak","wikidata":"Q7512692"}},{"type":"Feature","geometry":{"type":"Point","coordinates":[-114.6578845,44.1687433]},"properties":{"name":"WCP-1","ele":3157.1184,"type":"peak"}},{"type":"Feature","geometry":{"type":"Point","coordinates":[-116.5275711,38.8415989]},"properties":{"name":"Tulle Mountain","ele":3157.0,"type":"peak"}},{"type":"Feature","geometry":{"type":"Point","coordinates":[-111.5990687,38.025541]},"properties":{"name":"Burr Top","ele":3155.0,"type":"peak"}},{"type":"Feature","geometry":{"type":"Point","coordinates":[-110.7304488,40.9771694]},"properties":{"name":"Elizabeth Mountain","ele":3150.0,"type":"peak"}},{"type":"Feature","geometry":{"type":"Point","coordinates":[-150.6131199,62.9693422]},"properties":{"name":"The Moose's Tooth","ele":3150.0,"type":"peak","wikidata":"Q7752216"}},{"type":"Feature","geometry":{"type":"Point","coordinates":[-139.1892223,60.0674943]},"properties":{"name":"Mount Seattle South","ele":3150.0,"type":"peak","wikipedia":"en:Mount_Seattle"}},{"type":"Feature","geometry":{"type":"Point","coordinates":[-110.8557692,44.8188215]},"properties":{"name":"Mount Holmes","ele":3149.0,"type":"peak","wikidata":"Q6921238"}},{"type":"Feature","geometry":{"type":"Point","coordinates":[-110.6733999,42.4500128]},"properties":{"name":"Graham Peak","ele":3149.0,"type":"peak","wikidata":"Q49032593"}},{"type":"Feature","geometry":{"type":"Point","coordinates":[-110.2574148,43.7218895]},"properties":{"name":"Grouse Mountain","ele":3149.0,"type":"peak","wikidata":"Q49034180"}},{"type":"Feature","geometry":{"type":"Point","coordinates":[-114.8028226,44.4833853]},"properties":{"name":"The General","ele":3148.2792,"type":"peak"}},{"type":"Feature","geometry":{"type":"Point","coordinates":[-112.0193614,38.3910919]},"properties":{"name":"Langdon","ele":3148.0,"type":"peak"}},{"type":"Feature","geometry":{"type":"Point","coordinates":[-110.869585,37.0341623]},"properties":{"name":"Navajo Mountain / Naatsis\u02bc\u00e1\u00e1n","ele":3148.0,"type":"peak","wikidata":"Q767372"}},{"type":"Feature","geometry":{"type":"Point","coordinates":[-110.9980001,45.4160423]},"properties":{"name":"Mount Bole","ele":3148.0,"type":"peak"}},{"type":"Feature","geometry":{"type":"Point","coordinates":[-110.8211167,42.9679552]},"properties":{"name":"Man Peak","ele":3147.4,"type":"peak"}},{"type":"Feature","geometry":{"type":"Point","coordinates":[-103.2298414,25.1362578]},"properties":{"name":"El Picacho","ele":3146.0,"type":"peak","wikipedia":"es:Cerro_El_Centinela_(Torre\u00f3n)"}},{"type":"Feature","geometry":{"type":"Point","coordinates":[-114.6532997,43.7620107]},"properties":{"name":"Norton Peak","ele":3146.0,"type":"peak","wikidata":"Q7060672"}},{"type":"Feature","geometry":{"type":"Point","coordinates":[-107.4453143,33.6647871]},"properties":{"name":"West Blue Mountain","ele":3145.0,"type":"peak","wikidata":"Q7984490"}},{"type":"Feature","geometry":{"type":"Point","coordinates":[-141.0170586,61.0512027]},"properties":{"name":"Mount George","ele":3145.0,"type":"peak"}},{"type":"Feature","geometry":{"type":"Point","coordinates":[-107.9314536,38.1936007]},"properties":{"name":"Horsefly Peak","ele":3144.0,"type":"peak","wikidata":"Q14684597"}},{"type":"Feature","geometry":{"type":"Point","coordinates":[-110.5701884,43.228265]},"properties":{"name":"Ramshorn Peak","ele":3143.0,"type":"peak","wikidata":"Q49066557"}},{"type":"Feature","geometry":{"type":"Point","coordinates":[-119.1854786,37.2943322]},"properties":{"name":"Kaiser Peak","ele":3142.0,"type":"peak","wikidata":"Q49040613"}},{"type":"Feature","geometry":{"type":"Point","coordinates":[-105.1822304,36.3417007]},"properties":{"name":"Spruce Hill","ele":3141.0,"type":"peak","wikidata":"Q49076817"}},{"type":"Feature","geometry":{"type":"Point","coordinates":[-114.3439532,44.367142]},"properties":{"name":"Bald Mountain","ele":3139.0,"type":"peak","wikidata":"Q49010056"}},{"type":"Feature","geometry":{"type":"Point","coordinates":[-144.6417138,63.2389183]},"properties":{"name":"Mount Kimball","ele":3139.0,"type":"peak","wikidata":"Q8523184","wikipedia":"en:Mount Kimball (Alaska)"}},{"type":"Feature","geometry":{"type":"Point","coordinates":[-105.5463851,38.702216]},"properties":{"name":"Thirtyone Mile Mountain","ele":3137.0,"type":"peak"}},{"type":"Feature","geometry":{"type":"Point","coordinates":[-110.4843379,42.3996596]},"properties":{"name":"Bald Knoll","ele":3137.0,"type":"peak","wikidata":"Q49009949"}},{"type":"Feature","geometry":{"type":"Point","coordinates":[-113.6611207,42.1854686]},"properties":{"name":"Cache Peak","ele":3136.0,"type":"peak","wikidata":"Q5015961"}},{"type":"Feature","geometry":{"type":"Point","coordinates":[-110.5293715,44.2660521]},"properties":{"name":"Mount Sheridan","ele":3135.0,"type":"peak","wikidata":"Q944906"}},{"type":"Feature","geometry":{"type":"Point","coordinates":[-112.8313891,44.1737964]},"properties":{"name":"Copper Mountain","ele":3130.0,"type":"peak","wikidata":"Q49022020"}},{"type":"Feature","geometry":{"type":"Point","coordinates":[-146.9152021,63.6673975]},"properties":{"name":"Mount Giddings","ele":3129.0,"type":"peak"}},{"type":"Feature","geometry":{"type":"Point","coordinates":[-106.8105994,40.1294292]},"properties":{"name":"Lone Spring Butte","ele":3126.0,"type":"peak"}},{"type":"Feature","geometry":{"type":"Point","coordinates":[-110.9840518,40.0469006]},"properties":{"name":"Strawberry Peak","ele":3125.0,"type":"peak","wikidata":"Q49078828"}},{"type":"Feature","geometry":{"type":"Point","coordinates":[-110.4337916,44.7975557]},"properties":{"name":"Mount Washburn","ele":3122.0,"type":"peak","wikidata":"Q1431845","wikipedia":"en:Mount Washburn"}},{"type":"Feature","geometry":{"type":"Point","coordinates":[-111.3882891,44.7224236]},"properties":{"name":"Targhee Peak","ele":3121.0,"type":"peak","wikidata":"Q49081440"}},{"type":"Feature","geometry":{"type":"Point","coordinates":[-110.4060331,43.7254974]},"properties":{"name":"Mount Leidy","ele":3119.0,"type":"peak","wikidata":"Q20714882"}},{"type":"Feature","geometry":{"type":"Point","coordinates":[-114.8217002,40.5524281]},"properties":{"name":"Spruce Mountain","ele":3119.0,"type":"peak","wikidata":"Q7581424"}},{"type":"Feature","geometry":{"type":"Point","coordinates":[-107.1922788,40.8796906]},"properties":{"name":"Columbus Mountain","ele":3119.0,"type":"peak","wikidata":"Q14684410"}},{"type":"Feature","geometry":{"type":"Point","coordinates":[-117.4800993,39.1510382]},"properties":{"name":"North Shoshone Peak","ele":3118.0,"type":"peak"}},{"type":"Feature","geometry":{"type":"Point","coordinates":[-110.1574344,44.0939313]},"properties":{"name":"South Two Ocean Plateau","ele":3117.0,"type":"peak"}},{"type":"Feature","geometry":{"type":"Point","coordinates":[-110.417423,44.1552222]},"properties":{"name":"Mount Hancock","ele":3116.0,"type":"peak","wikidata":"Q6921045"}},{"type":"Feature","geometry":{"type":"Point","coordinates":[-114.8525104,43.8506432]},"properties":{"name":"Vienna Peak","ele":3116.0,"type":"peak"}},{"type":"Feature","geometry":{"type":"Point","coordinates":[-109.5737527,40.7374576]},"properties":{"name":"Dyer Mountain","ele":3116.0,"type":"peak"}},{"type":"Feature","geometry":{"type":"Point","coordinates":[-113.1233628,44.8299229]},"properties":{"name":"Maiden Peak","ele":3115.0,"type":"peak","wikidata":"Q49047562"}},{"type":"Feature","geometry":{"type":"Point","coordinates":[-111.1840588,40.4341187]},"properties":{"name":"Heber Mountain","ele":3114.0,"type":"peak"}},{"type":"Feature","geometry":{"type":"Point","coordinates":[-119.0868133,38.2346403]},"properties":{"name":"Potato Peak","ele":3113.0,"type":"peak","wikidata":"Q49063806"}},{"type":"Feature","geometry":{"type":"Point","coordinates":[-111.0930028,45.1554858]},"properties":{"name":"Ramshorn Peak","ele":3113.0,"type":"peak"}},{"type":"Feature","geometry":{"type":"Point","coordinates":[-112.4619578,45.7421486]},"properties":{"name":"Table Mountain","ele":3113.0,"type":"peak"}},{"type":"Feature","geometry":{"type":"Point","coordinates":[-118.4459522,36.2644432]},"properties":{"name":"Angora Mountain","ele":3108.4,"type":"peak","wikidata":"Q35724239"}},{"type":"Feature","geometry":{"type":"Point","coordinates":[-110.3469272,39.6425819]},"properties":{"name":"Bruin Point","ele":3106.0,"type":"peak"}},{"type":"Feature","geometry":{"type":"Point","coordinates":[-116.2881129,38.6277107]},"properties":{"name":"Morey Peak","ele":3105.0,"type":"peak"}},{"type":"Feature","geometry":{"type":"Point","coordinates":[-105.3621524,33.6062013]},"properties":{"name":"Summit Peak","ele":3103.0,"type":"peak"}},{"type":"Feature","geometry":{"type":"Point","coordinates":[-106.6564264,39.9869315]},"properties":{"name":"Black Mountain","ele":3103.0,"type":"peak"}},{"type":"Feature","geometry":{"type":"Point","coordinates":[-108.1922832,34.1556108]},"properties":{"name":"Alegres Mountain","ele":3102.0,"type":"peak","wikidata":"Q49008598"}},{"type":"Feature","geometry":{"type":"Point","coordinates":[-109.2165244,43.5394013]},"properties":{"name":"Black Mountain","ele":3100.0,"type":"peak","wikidata":"Q49013872"}},{"type":"Feature","geometry":{"type":"Point","coordinates":[-114.6546608,49.9669393]},"properties":{"name":"Tornado Mountain","ele":3099.0,"type":"peak","wikidata":"Q8530811","wikipedia":"en:Tornado Mountain"}},{"type":"Feature","geometry":{"type":"Point","coordinates":[-107.7573437,44.7275833]},"properties":{"name":"Hunt Mountain","ele":3098.0,"type":"peak","wikidata":"Q49038020"}},{"type":"Feature","geometry":{"type":"Point","coordinates":[-107.5883946,39.8938677]},"properties":{"name":"Burro Mountain","ele":3098.0,"type":"peak"}},{"type":"Feature","geometry":{"type":"Point","coordinates":[-111.5044042,44.561864]},"properties":{"name":"Mount Jefferson","ele":3097.0,"type":"peak"}},{"type":"Feature","geometry":{"type":"Point","coordinates":[-115.3750578,30.9926833]},"properties":{"name":"Picacho del Diablo","ele":3096.0,"type":"peak","wikidata":"Q3817471","wikipedia":"es:Cerro de La Encantada (M\u00e9xico)"}},{"type":"Feature","geometry":{"type":"Point","coordinates":[-137.0273517,58.6866071]},"properties":{"name":"Mount Bertha","ele":3096.0,"type":"peak"}},{"type":"Feature","geometry":{"type":"Point","coordinates":[-107.8503149,33.052016]},"properties":{"name":"McKnight Mountain","ele":3092.0,"type":"peak","wikidata":"Q8523984"}},{"type":"Feature","geometry":{"type":"Point","coordinates":[-113.6103853,48.5144121]},"properties":{"name":"Mount Stimson","ele":3091.0,"type":"peak","wikidata":"Q6923878"}},{"type":"Feature","geometry":{"type":"Point","coordinates":[-138.720787,60.6344265]},"properties":{"name":"Mount Leacock","ele":3091.0,"type":"peak"}},{"type":"Feature","geometry":{"type":"Point","coordinates":[-132.3045977,57.3935222]},"properties":{"name":"Mount Ratz","ele":3090.0,"type":"peak","wikidata":"Q6923153"}},{"type":"Feature","geometry":{"type":"Point","coordinates":[-106.3953083,38.1561088]},"properties":{"name":"Trickle Mountain","ele":3089.0,"type":"peak"}},{"type":"Feature","geometry":{"type":"Point","coordinates":[-112.1735458,38.9941291]},"properties":{"name":"Pioneer Peak","ele":3088.0,"type":"peak"}},{"type":"Feature","geometry":{"type":"Point","coordinates":[-116.952311,39.7096459]},"properties":{"name":"Mount Callaghan","ele":3088.0,"type":"peak"}},{"type":"Feature","geometry":{"type":"Point","coordinates":[-106.0426837,40.0413246]},"properties":{"name":"Cottonwood Peak","ele":3084.0,"type":"peak"}},{"type":"Feature","geometry":{"type":"Point","coordinates":[-112.2535451,38.8741324]},"properties":{"name":"Mine Camp Peak","ele":3081.0,"type":"peak"}},{"type":"Feature","geometry":{"type":"Point","coordinates":[-114.2975884,45.8899191]},"properties":{"name":"Trapper Peak","ele":3081.0,"type":"peak","wikidata":"Q7835655","wikipedia":"en:Trapper Peak (Montana)"}},{"type":"Feature","geometry":{"type":"Point","coordinates":[-138.771456,60.2268662]},"properties":{"name":"Ulu Mountain","ele":3081.0,"type":"peak"}},{"type":"Feature","geometry":{"type":"Point","coordinates":[-107.5940388,28.2524053]},"properties":{"name":"Gasachi","ele":3080.0,"type":"peak"}},{"type":"Feature","geometry":{"type":"Point","coordinates":[-112.9797689,46.3502051]},"properties":{"name":"Mount Powell","ele":3080.0,"type":"peak"}},{"type":"Feature","geometry":{"type":"Point","coordinates":[-114.1712455,48.943864]},"properties":{"name":"Kintla Peak","ele":3079.0,"type":"peak","wikidata":"Q8521869"}},{"type":"Feature","geometry":{"type":"Point","coordinates":[-114.873081,39.7429904]},"properties":{"name":"Telegraph Hill","ele":3078.0,"type":"peak"}},{"type":"Feature","geometry":{"type":"Point","coordinates":[-107.4861489,33.8808964]},"properties":{"name":"Mount Withington","ele":3077.0,"type":"peak","wikidata":"Q49055239"}},{"type":"Feature","geometry":{"type":"Point","coordinates":[-114.9361519,43.4932632]},"properties":{"name":"Smoky Dome","ele":3076.956,"type":"peak","wikidata":"Q7546138","wikipedia":"en:Smoky Dome"}},{"type":"Feature","geometry":{"type":"Point","coordinates":[-114.2877797,39.4454983]},"properties":{"name":"O'Neal Peak","ele":3075.0,"type":"peak"}},{"type":"Feature","geometry":{"type":"Point","coordinates":[-114.6020355,45.1740825]},"properties":{"name":"Mount McGuire","ele":3075.0,"type":"peak"}},{"type":"Feature","geometry":{"type":"Point","coordinates":[-105.8347255,40.9174782]},"properties":{"name":"Bull Mountain","ele":3074.0,"type":"peak"}},{"type":"Feature","geometry":{"type":"Point","coordinates":[-105.6839005,36.9375203]},"properties":{"name":"Ute Mountain","ele":3073.0,"type":"peak","wikidata":"Q49086755"}},{"type":"Feature","geometry":{"type":"Point","coordinates":[-119.0173803,37.6368739]},"properties":{"name":"Lincoln Mountain","ele":3072.0,"type":"peak"}},{"type":"Feature","geometry":{"type":"Point","coordinates":[-155.4639178,19.530095]},"properties":{"name":"Pu\u02bbu\u02bbula\u02bbula (Red Hill)","ele":3072.0,"type":"peak"}},{"type":"Feature","geometry":{"type":"Point","coordinates":[-106.4933692,40.3180388]},"properties":{"name":"Whiteley Peak","ele":3071.0,"type":"peak"}},{"type":"Feature","geometry":{"type":"Point","coordinates":[-115.7469444,38.1047222]},"properties":{"name":"Stairstep Mountain","ele":3069.0,"type":"peak"}},{"type":"Feature","geometry":{"type":"Point","coordinates":[-121.8135119,48.7722278]},"properties":{"name":"Lahar Lookout","ele":3069.0,"type":"peak","wikidata":"Q49043196"}},{"type":"Feature","geometry":{"type":"Point","coordinates":[-117.6464047,34.2891206]},"properties":{"name":"Mount San Antonio","ele":3068.0,"type":"peak","wikidata":"Q128657","wikipedia":"en:Mount San Antonio"}},{"type":"Feature","geometry":{"type":"Point","coordinates":[-105.7577823,38.4602749]},"properties":{"name":"Burned Timber Mountain","ele":3067.0,"type":"peak"}},{"type":"Feature","geometry":{"type":"Point","coordinates":[-109.9640596,43.5491154]},"properties":{"name":"Fish Lake Mountain","ele":3065.0,"type":"peak","wikidata":"Q49029029"}},{"type":"Feature","geometry":{"type":"Point","coordinates":[-107.2183084,38.5640532]},"properties":{"name":"Lion Point","ele":3064.0,"type":"peak"}},{"type":"Feature","geometry":{"type":"Point","coordinates":[-114.9767395,43.7371228]},"properties":{"name":"Two Point Mountain","ele":3061.0,"type":"peak","wikidata":"Q18681199"}},{"type":"Feature","geometry":{"type":"Point","coordinates":[-106.446849,34.5910601]},"properties":{"name":"Manzano Peak","ele":3060.0,"type":"peak","wikidata":"Q6753454","wikipedia":"en:Manzano Peak"}},{"type":"Feature","geometry":{"type":"Point","coordinates":[-121.7641612,44.0998733]},"properties":{"name":"Hodge Crest","ele":3060.0,"type":"peak"}},{"type":"Feature","geometry":{"type":"Point","coordinates":[-105.4432744,42.2678971]},