{
  "type": "FeatureCollection",
  "features": [
    {
      "type": "Feature",
      "geometry": {
        "type": "Point",
        "coordinates": [
          -86.72741,
          33.52159
        ]
      },
      "properties": {
        "name": "Birmingham (Crestline), AL",
        "address": "4500 Montevallo Rd, Birmingham, AL 35210",
        "slug": "birmingham-crestline-al",
        "url": "https://www.planetfitness.com/gyms/birmingham-crestline-al",
        "brand": "Planet Fitness"
      }
    },
    {
      "type": "Feature",
      "geometry": {
        "type": "Point",
        "coordinates": [
          -86.826007,
          33.449415
        ]
      },
      "properties": {
        "name": "Birmingham (Homewood), AL",
        "address": "140 Wildwood Pkwy, Birmingham, AL 35209",
        "slug": "birmingham-homewood-al",
        "url": "https://www.planetfitness.com/gyms/birmingham-homewood-al",
        "brand": "Planet Fitness"
      }
    },
    {
      "type": "Feature",
      "geometry": {
        "type": "Point",
        "coordinates": [
          -86.697404,
          33.419005
        ]
      },
      "properties": {
        "name": "Birmingham (Inverness), AL",
        "address": "168 Inverness Plz, Birmingham, AL 35242-4896",
        "slug": "birmingham-inverness-al",
        "url": "https://www.planetfitness.com/gyms/birmingham-inverness-al",
        "brand": "Planet Fitness"
      }
    },
    {
      "type": "Feature",
      "geometry": {
        "type": "Point",
        "coordinates": [
          -86.7032,
          33.585804
        ]
      },
      "properties": {
        "name": "Birmingham (Roebuck), AL",
        "address": "9118 Parkway E, Birmingham, AL 35206-1507",
        "slug": "birmingham-roebuck-al",
        "url": "https://www.planetfitness.com/gyms/birmingham-roebuck-al",
        "brand": "Planet Fitness"
      }
    },
    {
      "type": "Feature",
      "geometry": {
        "type": "Point",
        "coordinates": [
          -86.1872989,
          34.2630944
        ]
      },
      "properties": {
        "name": "Albertville, AL",
        "address": "5850 US Hwy 431, Albertville, AL 35950",
        "slug": "albertville-al",
        "url": "https://www.planetfitness.com/gyms/albertville-al",
        "brand": "Planet Fitness"
      }
    },
    {
      "type": "Feature",
      "geometry": {
        "type": "Point",
        "coordinates": [
          -86.9984125,
          34.557823
        ]
      },
      "properties": {
        "name": "Decatur, AL",
        "address": "809 Beltline Rd Sw Ste B, Decatur, AL 35601-6337",
        "slug": "decatur-al",
        "url": "https://www.planetfitness.com/gyms/decatur-al",
        "brand": "Planet Fitness"
      }
    },
    {
      "type": "Feature",
      "geometry": {
        "type": "Point",
        "coordinates": [
          -87.8599306,
          30.6587873
        ]
      },
      "properties": {
        "name": "Daphne, AL",
        "address": "29685 Renaissance Blvd, Daphne, AL 36526",
        "slug": "daphne-al",
        "url": "https://www.planetfitness.com/gyms/daphne-al",
        "brand": "Planet Fitness"
      }
    },
    {
      "type": "Feature",
      "geometry": {
        "type": "Point",
        "coordinates": [
          -86.8357649,
          34.1555984
        ]
      },
      "properties": {
        "name": "Cullman, AL",
        "address": "1727 2nd Ave SW, Cullman, AL 35055",
        "slug": "cullman-al",
        "url": "https://www.planetfitness.com/gyms/cullman-al",
        "brand": "Planet Fitness"
      }
    },
    {
      "type": "Feature",
      "geometry": {
        "type": "Point",
        "coordinates": [
          -85.4338113,
          31.231636
        ]
      },
      "properties": {
        "name": "Dothan, AL",
        "address": "3121 Ross Clark Cir, Dothan, AL 36303-3051",
        "slug": "dothan-al",
        "url": "https://www.planetfitness.com/gyms/dothan-al",
        "brand": "Planet Fitness"
      }
    },
    {
      "type": "Feature",
      "geometry": {
        "type": "Point",
        "coordinates": [
          -85.8277022,
          31.3251987
        ]
      },
      "properties": {
        "name": "Enterprise, AL",
        "address": "913 Rucker Blvd, Enterprise, AL 36330",
        "slug": "enterprise-al",
        "url": "https://www.planetfitness.com/gyms/enterprise-al",
        "brand": "Planet Fitness"
      }
    },
    {
      "type": "Feature",
      "geometry": {
        "type": "Point",
        "coordinates": [
          -86.9776125,
          33.3908808
        ]
      },
      "properties": {
        "name": "Bessemer, AL",
        "address": "528 W Town Plaza, Bessemer, AL 35020",
        "slug": "bessemer-al",
        "url": "https://www.planetfitness.com/gyms/bessemer-al",
        "brand": "Planet Fitness"
      }
    },
    {
      "type": "Feature",
      "geometry": {
        "type": "Point",
        "coordinates": [
          -85.9606643,
          32.921034
        ]
      },
      "properties": {
        "name": "Alexander City, AL",
        "address": "987 Market Place, Alexander City, AL 35010",
        "slug": "alexander-city-al",
        "url": "https://www.planetfitness.com/gyms/alexander-city-al",
        "brand": "Planet Fitness"
      }
    },
    {
      "type": "Feature",
      "geometry": {
        "type": "Point",
        "coordinates": [
          -87.6819838,
          30.3880751
        ]
      },
      "properties": {
        "name": "Foley, AL",
        "address": "1639 S McKenzie St, Foley, AL 36535",
        "slug": "foley-al",
        "url": "https://www.planetfitness.com/gyms/foley-al",
        "brand": "Planet Fitness"
      }
    },
    {
      "type": "Feature",
      "geometry": {
        "type": "Point",
        "coordinates": [
          -87.6553434,
          34.8180672
        ]
      },
      "properties": {
        "name": "Florence, AL",
        "address": "1518 Florence Blvd, Florence, AL 35630",
        "slug": "florence-al",
        "url": "https://www.planetfitness.com/gyms/florence-al",
        "brand": "Planet Fitness"
      }
    },
    {
      "type": "Feature",
      "geometry": {
        "type": "Point",
        "coordinates": [
          -86.940704,
          34.4400177
        ]
      },
      "properties": {
        "name": "Hartselle, AL",
        "address": "240 Highway 31, Hartselle, AL 35640",
        "slug": "hartselle-al",
        "url": "https://www.planetfitness.com/gyms/hartselle-al",
        "brand": "Planet Fitness"
      }
    },
    {
      "type": "Feature",
      "geometry": {
        "type": "Point",
        "coordinates": [
          -87.8839629,
          30.520649
        ]
      },
      "properties": {
        "name": "Fairhope, AL",
        "address": "175 Baldwin Sq, Fairhope, AL 36532",
        "slug": "fairhope-al",
        "url": "https://www.planetfitness.com/gyms/fairhope-al",
        "brand": "Planet Fitness"
      }
    },
    {
      "type": "Feature",
      "geometry": {
        "type": "Point",
        "coordinates": [
          -86.797497,
          33.3709663
        ]
      },
      "properties": {
        "name": "Hoover, AL",
        "address": "1839 Montgomery Hwy Ste 40, Hoover, AL 35244-2524",
        "slug": "hoover-al",
        "url": "https://www.planetfitness.com/gyms/hoover-al",
        "brand": "Planet Fitness"
      }
    },
    {
      "type": "Feature",
      "geometry": {
        "type": "Point",
        "coordinates": [
          -86.0074824,
          33.9953657
        ]
      },
      "properties": {
        "name": "Gadsden, AL",
        "address": "1001 Rainbow Dr, Gadsden, AL 35901-5376",
        "slug": "gadsden-al",
        "url": "https://www.planetfitness.com/gyms/gadsden-al",
        "brand": "Planet Fitness"
      }
    },
    {
      "type": "Feature",
      "geometry": {
        "type": "Point",
        "coordinates": [
          -87.2655843,
          33.8498085
        ]
      },
      "properties": {
        "name": "Jasper, AL",
        "address": "714 Hwy 78 E, Jasper, AL 35501",
        "slug": "jasper-al",
        "url": "https://www.planetfitness.com/gyms/jasper-al",
        "brand": "Planet Fitness"
      }
    },
    {
      "type": "Feature",
      "geometry": {
        "type": "Point",
        "coordinates": [
          -86.602666,
          34.740448
        ]
      },
      "properties": {
        "name": "Huntsville, AL",
        "address": "1001 Memorial Pkwy, Huntsville, AL 35801",
        "slug": "huntsville-al",
        "url": "https://www.planetfitness.com/gyms/huntsville-al",
        "brand": "Planet Fitness"
      }
    },
    {
      "type": "Feature",
      "geometry": {
        "type": "Point",
        "coordinates": [
          -86.566516,
          34.633287
        ]
      },
      "properties": {
        "name": "South Huntsville, AL",
        "address": "11319 S Memorial Pkwy, Huntsville, AL 35803",
        "slug": "south-huntsville-al",
        "url": "https://www.planetfitness.com/gyms/south-huntsville-al",
        "brand": "Planet Fitness"
      }
    },
    {
      "type": "Feature",
      "geometry": {
        "type": "Point",
        "coordinates": [
          -86.7515395,
          34.7536712
        ]
      },
      "properties": {
        "name": "Madison, AL",
        "address": "8050 Hwy 72 W, Madison, AL 35758",
        "slug": "madison-al",
        "url": "https://www.planetfitness.com/gyms/madison-al",
        "brand": "Planet Fitness"
      }
    },
    {
      "type": "Feature",
      "geometry": {
        "type": "Point",
        "coordinates": [
          -87.5896802,
          33.2412616
        ]
      },
      "properties": {
        "name": "Northport, AL",
        "address": "3380 McFarland Blvd, Ste 1, Northport, AL 35476",
        "slug": "northport-al",
        "url": "https://www.planetfitness.com/gyms/northport-al",
        "brand": "Planet Fitness"
      }
    },
    {
      "type": "Feature",
      "geometry": {
        "type": "Point",
        "coordinates": [
          -85.8356862,
          33.6044003
        ]
      },
      "properties": {
        "name": "Oxford, AL",
        "address": "140 Spring Branch Rd, Oxford, AL 36203",
        "slug": "oxford-al",
        "url": "https://www.planetfitness.com/gyms/oxford-al",
        "brand": "Planet Fitness"
      }
    },
    {
      "type": "Feature",
      "geometry": {
        "type": "Point",
        "coordinates": [
          -85.4137602,
          32.640402
        ]
      },
      "properties": {
        "name": "Opelika, AL",
        "address": "2500 Pepperell Pkwy, Opelika, AL 36801",
        "slug": "opelika-al",
        "url": "https://www.planetfitness.com/gyms/opelika-al",
        "brand": "Planet Fitness"
      }
    },
    {
      "type": "Feature",
      "geometry": {
        "type": "Point",
        "coordinates": [
          -88.116527,
          30.688595
        ]
      },
      "properties": {
        "name": "Mobile (Dauphin St.), AL",
        "address": "3055 Dauphin St, Mobile, AL 36606-4040",
        "slug": "mobile-dauphin-st-al",
        "url": "https://www.planetfitness.com/gyms/mobile-dauphin-st-al",
        "brand": "Planet Fitness"
      }
    },
    {
      "type": "Feature",
      "geometry": {
        "type": "Point",
        "coordinates": [
          -88.167812,
          30.593912
        ]
      },
      "properties": {
        "name": "Mobile (Tillman's Corner), AL",
        "address": "5363 Hwy 90 W, Mobile, AL 36619",
        "slug": "mobile-tillmans-corner-al",
        "url": "https://www.planetfitness.com/gyms/mobile-tillmans-corner-al",
        "brand": "Planet Fitness"
      }
    },
    {
      "type": "Feature",
      "geometry": {
        "type": "Point",
        "coordinates": [
          -88.171703,
          30.673845
        ]
      },
      "properties": {
        "name": "Mobile (University Blvd), AL",
        "address": "308 S University Blvd, Mobile, AL 36609",
        "slug": "mobile-university-blvd-al",
        "url": "https://www.planetfitness.com/gyms/mobile-university-blvd-al",
        "brand": "Planet Fitness"
      }
    },
    {
      "type": "Feature",
      "geometry": {
        "type": "Point",
        "coordinates": [
          -88.228639,
          30.671758
        ]
      },
      "properties": {
        "name": "Mobile West (Schillinger Rd), AL",
        "address": "900B Schillinger Rd, Mobile, AL 36695",
        "slug": "mobile-west-schillinger-rd-al",
        "url": "https://www.planetfitness.com/gyms/mobile-west-schillinger-rd-al",
        "brand": "Planet Fitness"
      }
    },
    {
      "type": "Feature",
      "geometry": {
        "type": "Point",
        "coordinates": [
          -87.6699636,
          34.7471338
        ]
      },
      "properties": {
        "name": "Muscle Shoals, AL",
        "address": "1306 Woodward Ave, Muscle Shoals, AL 35661",
        "slug": "muscle-shoals-al",
        "url": "https://www.planetfitness.com/gyms/muscle-shoals-al",
        "brand": "Planet Fitness"
      }
    },
    {
      "type": "Feature",
      "geometry": {
        "type": "Point",
        "coordinates": [
          -86.2733111,
          33.6076648
        ]
      },
      "properties": {
        "name": "Pell City, AL",
        "address": "300 Vaughan Ln, Pell City, AL 35125",
        "slug": "pell-city-al",
        "url": "https://www.planetfitness.com/gyms/pell-city-al",
        "brand": "Planet Fitness"
      }
    },
    {
      "type": "Feature",
      "geometry": {
        "type": "Point",
        "coordinates": [
          -85.0144667,
          32.457046
        ]
      },
      "properties": {
        "name": "Phenix City, AL",
        "address": "1409 US Hwy 280, Phenix City, AL 36867",
        "slug": "phenix-city-al",
        "url": "https://www.planetfitness.com/gyms/phenix-city-al",
        "brand": "Planet Fitness"
      }
    },
    {
      "type": "Feature",
      "geometry": {
        "type": "Point",
        "coordinates": [
          -85.9486982,
          31.7794861
        ]
      },
      "properties": {
        "name": "Troy, AL",
        "address": "1267 US Hwy 231 S, Troy, AL 36081",
        "slug": "troy-al",
        "url": "https://www.planetfitness.com/gyms/troy-al",
        "brand": "Planet Fitness"
      }
    },
    {
      "type": "Feature",
      "geometry": {
        "type": "Point",
        "coordinates": [
          -86.3983913,
          32.4608158
        ]
      },
      "properties": {
        "name": "Prattville, AL",
        "address": "2431 Cobbs Ford Rd, Prattville, AL 36066",
        "slug": "prattville-al",
        "url": "https://www.planetfitness.com/gyms/prattville-al",
        "brand": "Planet Fitness"
      }
    },
    {
      "type": "Feature",
      "geometry": {
        "type": "Point",
        "coordinates": [
          -86.202229,
          32.383752
        ]
      },
      "properties": {
        "name": "Montgomery (Eastdale Circle), AL",
        "address": "3530 Eastdale Circle, Montgomery, AL 36117",
        "slug": "montgomery-eastdale-circle-al",
        "url": "https://www.planetfitness.com/gyms/montgomery-eastdale-circle-al",
        "brand": "Planet Fitness"
      }
    },
    {
      "type": "Feature",
      "geometry": {
        "type": "Point",
        "coordinates": [
          -86.249357,
          32.328854
        ]
      },
      "properties": {
        "name": "Montgomery (Governors Sq), AL",
        "address": "2883 E South Blvd, Montgomery, AL 36116",
        "slug": "montgomery-governors-sq-al",
        "url": "https://www.planetfitness.com/gyms/montgomery-governors-sq-al",
        "brand": "Planet Fitness"
      }
    },
    {
      "type": "Feature",
      "geometry": {
        "type": "Point",
        "coordinates": [
          -86.180835,
          32.337028
        ]
      },
      "properties": {
        "name": "Montgomery (Southeast), AL",
        "address": "7860 Vaughn Rd, Montgomery, AL 36116",
        "slug": "montgomery-southeast-al",
        "url": "https://www.planetfitness.com/gyms/montgomery-southeast-al",
        "brand": "Planet Fitness"
      }
    },
    {
      "type": "Feature",
      "geometry": {
        "type": "Point",
        "coordinates": [
          -87.528845,
          33.193433
        ]
      },
      "properties": {
        "name": "Tuscaloosa, AL",
        "address": "1800 McFarland Blvd E, Ste 321, Tuscaloosa, AL 35404",
        "slug": "tuscaloosa-al",
        "url": "https://www.planetfitness.com/gyms/tuscaloosa-al",
        "brand": "Planet Fitness"
      }
    },
    {
      "type": "Feature",
      "geometry": {
        "type": "Point",
        "coordinates": [
          -87.546066,
          33.163313
        ]
      },
      "properties": {
        "name": "Tuscaloosa (Skyland Blvd), AL",
        "address": "635 Skyland Blvd, Tuscaloosa, AL 35405",
        "slug": "tuscaloosa-skyland-blvd-al",
        "url": "https://www.planetfitness.com/gyms/tuscaloosa-skyland-blvd-al",
        "brand": "Planet Fitness"
      }
    },
    {
      "type": "Feature",
      "geometry": {
        "type": "Point",
        "coordinates": [
          -86.7924542,
          33.4466022
        ]
      },
      "properties": {
        "name": "Vestavia Hills, AL",
        "address": "700 Montgomery Hwy, Ste 138, Vestavia Hills, AL 35216",
        "slug": "vestavia-hills-al",
        "url": "https://www.planetfitness.com/gyms/vestavia-hills-al",
        "brand": "Planet Fitness"
      }
    },
    {
      "type": "Feature",
      "geometry": {
        "type": "Point",
        "coordinates": [
          -149.3936445,
          61.5746786
        ]
      },
      "properties": {
        "name": "Wasilla, AK",
        "address": "2241 E Sun Mountain Ave, Wasilla, AK 99654",
        "slug": "wasilla-ak",
        "url": "https://www.planetfitness.com/gyms/wasilla-ak",
        "brand": "Planet Fitness"
      }
    },
    {
      "type": "Feature",
      "geometry": {
        "type": "Point",
        "coordinates": [
          -147.742726,
          64.8355929
        ]
      },
      "properties": {
        "name": "Fairbanks, AK",
        "address": "1255 Airport Way, Fairbanks, AK 99701",
        "slug": "fairbanks-ak",
        "url": "https://www.planetfitness.com/gyms/fairbanks-ak",
        "brand": "Planet Fitness"
      }
    },
    {
      "type": "Feature",
      "geometry": {
        "type": "Point",
        "coordinates": [
          -149.5624975,
          61.33718
        ]
      },
      "properties": {
        "name": "Eagle River, AK",
        "address": "17151 N Juanita Loop, Eagle River, AK 99577",
        "slug": "eagle-river-ak",
        "url": "https://www.planetfitness.com/gyms/eagle-river-ak",
        "brand": "Planet Fitness"
      }
    },
    {
      "type": "Feature",
      "geometry": {
        "type": "Point",
        "coordinates": [
          -149.916092,
          61.136053
        ]
      },
      "properties": {
        "name": "Anchorage (Dimond Blvd.), AK",
        "address": "1920 W Dimond Blvd, Unit I-3, Anchorage, AK 99515",
        "slug": "anchorage-dimond-blvd-ak",
        "url": "https://www.planetfitness.com/gyms/anchorage-dimond-blvd-ak",
        "brand": "Planet Fitness"
      }
    },
    {
      "type": "Feature",
      "geometry": {
        "type": "Point",
        "coordinates": [
          -149.872174,
          61.194751
        ]
      },
      "properties": {
        "name": "Anchorage (Northern Lights Blvd), AK",
        "address": "670 E Northern Lights Blvd, Anchorage, AK 99503",
        "slug": "anchorage-northern-lights-blvd-ak",
        "url": "https://www.planetfitness.com/gyms/anchorage-northern-lights-blvd-ak",
        "brand": "Planet Fitness"
      }
    },
    {
      "type": "Feature",
      "geometry": {
        "type": "Point",
        "coordinates": [
          -149.819946,
          61.216817
        ]
      },
      "properties": {
        "name": "Anchorage (Northway), AK",
        "address": "3101 Penland Pkwy, Anchorage, AK 99508",
        "slug": "anchorage-northway-ak",
        "url": "https://www.planetfitness.com/gyms/anchorage-northway-ak",
        "brand": "Planet Fitness"
      }
    },
    {
      "type": "Feature",
      "geometry": {
        "type": "Point",
        "coordinates": [
          -111.5827411,
          35.2228235
        ]
      },
      "properties": {
        "name": "Flagstaff (East), AZ",
        "address": "4650 US Hwy 89, Ste B-2, Flagstaff, AZ 86004",
        "slug": "flagstaff-east-az",
        "url": "https://www.planetfitness.com/gyms/flagstaff-east-az",
        "brand": "Planet Fitness"
      }
    },
    {
      "type": "Feature",
      "geometry": {
        "type": "Point",
        "coordinates": [
          -112.5539205,
          33.4341199
        ]
      },
      "properties": {
        "name": "Buckeye, AZ",
        "address": "1341 S Watson Rd, Buckeye, AZ 85326",
        "slug": "buckeye-az",
        "url": "https://www.planetfitness.com/gyms/buckeye-az",
        "brand": "Planet Fitness"
      }
    },
    {
      "type": "Feature",
      "geometry": {
        "type": "Point",
        "coordinates": [
          -112.3081308,
          33.448021
        ]
      },
      "properties": {
        "name": "Avondale, AZ",
        "address": "200 N Avondale Blvd, Avondale, AZ 85323",
        "slug": "avondale-az",
        "url": "https://www.planetfitness.com/gyms/avondale-az",
        "brand": "Planet Fitness"
      }
    },
    {
      "type": "Feature",
      "geometry": {
        "type": "Point",
        "coordinates": [
          -111.5788491,
          33.41403
        ]
      },
      "properties": {
        "name": "Apache Junction, AZ",
        "address": "3003 W Apache Trl Ste 1, Apache Junction, AZ 85120-3635",
        "slug": "apache-junction-az",
        "url": "https://www.planetfitness.com/gyms/apache-junction-az",
        "brand": "Planet Fitness"
      }
    },
    {
      "type": "Feature",
      "geometry": {
        "type": "Point",
        "coordinates": [
          -111.7305009,
          32.8775201
        ]
      },
      "properties": {
        "name": "Casa Grande, AZ",
        "address": "Tri Valley Plaza, 1325 E Florence Blvd, Casa Grande, AZ 85122",
        "slug": "casa-grande-az",
        "url": "https://www.planetfitness.com/gyms/casa-grande-az",
        "brand": "Planet Fitness"
      }
    },
    {
      "type": "Feature",
      "geometry": {
        "type": "Point",
        "coordinates": [
          -112.0070469,
          34.7277686
        ]
      },
      "properties": {
        "name": "Cottonwood, AZ",
        "address": "1655 E Cottonwood St, Cottonwood, AZ 86326",
        "slug": "cottonwood-az",
        "url": "https://www.planetfitness.com/gyms/cottonwood-az",
        "brand": "Planet Fitness"
      }
    },
    {
      "type": "Feature",
      "geometry": {
        "type": "Point",
        "coordinates": [
          -114.597,
          35.099563
        ]
      },
      "properties": {
        "name": "Bullhead City, AZ",
        "address": "1568 Marina Blvd, Bullhead City, AZ 86442",
        "slug": "bullhead-city-az",
        "url": "https://www.planetfitness.com/gyms/bullhead-city-az",
        "brand": "Planet Fitness"
      }
    },
    {
      "type": "Feature",
      "geometry": {
        "type": "Point",
        "coordinates": [
          -111.970561,
          33.320684
        ]
      },
      "properties": {
        "name": "Chandler (Ahwatukee), AZ",
        "address": "1020 N 54th St, Chandler, AZ 85226",
        "slug": "chandler-ahwatukee-az",
        "url": "https://www.planetfitness.com/gyms/chandler-ahwatukee-az",
        "brand": "Planet Fitness"
      }
    },
    {
      "type": "Feature",
      "geometry": {
        "type": "Point",
        "coordinates": [
          -111.843007,
          33.285528
        ]
      },
      "properties": {
        "name": "Chandler (Downtown), AZ",
        "address": "1420 S Arizona Ave, Chandler, AZ 85286-6518",
        "slug": "chandler-downtown-az",
        "url": "https://www.planetfitness.com/gyms/chandler-downtown-az",
        "brand": "Planet Fitness"
      }
    },
    {
      "type": "Feature",
      "geometry": {
        "type": "Point",
        "coordinates": [
          -111.86086,
          33.347527
        ]
      },
      "properties": {
        "name": "Chandler (North), AZ",
        "address": "2980 N Alma School Rd, Chandler, AZ 85224",
        "slug": "chandler-north-az",
        "url": "https://www.planetfitness.com/gyms/chandler-north-az",
        "brand": "Planet Fitness"
      }
    },
    {
      "type": "Feature",
      "geometry": {
        "type": "Point",
        "coordinates": [
          -114.0380927,
          35.2361821
        ]
      },
      "properties": {
        "name": "Kingman, AZ",
        "address": "3911 N Stockton Hill Rd, Kingman, AZ 86409",
        "slug": "kingman-az",
        "url": "https://www.planetfitness.com/gyms/kingman-az",
        "brand": "Planet Fitness"
      }
    },
    {
      "type": "Feature",
      "geometry": {
        "type": "Point",
        "coordinates": [
          -111.788721,
          33.334028
        ]
      },
      "properties": {
        "name": "Gilbert (Downtown), AZ",
        "address": "915 S Gilbert Rd, Gilbert, AZ 85296",
        "slug": "gilbert-downtown-az",
        "url": "https://www.planetfitness.com/gyms/gilbert-downtown-az",
        "brand": "Planet Fitness"
      }
    },
    {
      "type": "Feature",
      "geometry": {
        "type": "Point",
        "coordinates": [
          -111.688626,
          33.318168
        ]
      },
      "properties": {
        "name": "Gilbert (Gateway), AZ",
        "address": "5382 S Power Rd, Gilbert, AZ 85295",
        "slug": "gilbert-gateway-az",
        "url": "https://www.planetfitness.com/gyms/gilbert-gateway-az",
        "brand": "Planet Fitness"
      }
    },
    {
      "type": "Feature",
      "geometry": {
        "type": "Point",
        "coordinates": [
          -111.739656,
          33.335133
        ]
      },
      "properties": {
        "name": "Gilbert (Greenfield Lakes), AZ",
        "address": "858 S Greenfield Rd, Gilbert, AZ 85296",
        "slug": "gilbert-greenfield-lakes-az",
        "url": "https://www.planetfitness.com/gyms/gilbert-greenfield-lakes-az",
        "brand": "Planet Fitness"
      }
    },
    {
      "type": "Feature",
      "geometry": {
        "type": "Point",
        "coordinates": [
          -111.82583,
          33.362481
        ]
      },
      "properties": {
        "name": "Gilbert (McQueen), AZ",
        "address": "706 N McQueen Rd, Gilbert, AZ 85233-3500",
        "slug": "gilbert-mcqueen-az",
        "url": "https://www.planetfitness.com/gyms/gilbert-mcqueen-az",
        "brand": "Planet Fitness"
      }
    },
    {
      "type": "Feature",
      "geometry": {
        "type": "Point",
        "coordinates": [
          -111.757136,
          33.261882
        ]
      },
      "properties": {
        "name": "Gilbert (Val Vista), AZ",
        "address": "4874 S Val Vista Dr, Gilbert, AZ 85298",
        "slug": "gilbert-val-vista-az",
        "url": "https://www.planetfitness.com/gyms/gilbert-val-vista-az",
        "brand": "Planet Fitness"
      }
    },
    {
      "type": "Feature",
      "geometry": {
        "type": "Point",
        "coordinates": [
          -112.044663,
          33.0658124
        ]
      },
      "properties": {
        "name": "Maricopa, AZ",
        "address": "20595 N John Wayne Pkwy, Ste 400, Maricopa, AZ 85139",
        "slug": "maricopa-az",
        "url": "https://www.planetfitness.com/gyms/maricopa-az",
        "brand": "Planet Fitness"
      }
    },
    {
      "type": "Feature",
      "geometry": {
        "type": "Point",
        "coordinates": [
          -112.423462,
          33.442017
        ]
      },
      "properties": {
        "name": "Goodyear, AZ",
        "address": "515 S Cotton Ln, Goodyear, AZ 85338",
        "slug": "goodyear-az",
        "url": "https://www.planetfitness.com/gyms/goodyear-az",
        "brand": "Planet Fitness"
      }
    },
    {
      "type": "Feature",
      "geometry": {
        "type": "Point",
        "coordinates": [
          -112.356855,
          33.450892
        ]
      },
      "properties": {
        "name": "Goodyear (Litchfield), AZ",
        "address": "409 N Litchfield Rd, Goodyear, AZ 85338-1300",
        "slug": "goodyear-litchfield-az",
        "url": "https://www.planetfitness.com/gyms/goodyear-litchfield-az",
        "brand": "Planet Fitness"
      }
    },
    {
      "type": "Feature",
      "geometry": {
        "type": "Point",
        "coordinates": [
          -114.3423924,
          34.4770524
        ]
      },
      "properties": {
        "name": "Lake Havasu City, AZ",
        "address": "1755 McCulloch Blvd N, Lake Havasu City, AZ 86403",
        "slug": "lake-havasu-city-az",
        "url": "https://www.planetfitness.com/gyms/lake-havasu-city-az",
        "brand": "Planet Fitness"
      }
    },
    {
      "type": "Feature",
      "geometry": {
        "type": "Point",
        "coordinates": [
          -112.095071,
          33.508259
        ]
      },
      "properties": {
        "name": "Phoenix (Alhambra), AZ",
        "address": "1625 W Camelback Rd, Phoenix, AZ 85015",
        "slug": "phoenix-alhambra-az",
        "url": "https://www.planetfitness.com/gyms/phoenix-alhambra-az",
        "brand": "Planet Fitness"
      }
    },
    {
      "type": "Feature",
      "geometry": {
        "type": "Point",
        "coordinates": [
          -111.996608,
          33.478569
        ]
      },
      "properties": {
        "name": "Phoenix (Arcadia), AZ",
        "address": "3975 E Thomas Rd, Phoenix, AZ 85018",
        "slug": "phoenix-arcadia-az",
        "url": "https://www.planetfitness.com/gyms/phoenix-arcadia-az",
        "brand": "Planet Fitness"
      }
    },
    {
      "type": "Feature",
      "geometry": {
        "type": "Point",
        "coordinates": [
          -112.165528,
          33.637955
        ]
      },
      "properties": {
        "name": "Phoenix (Bellair), AZ",
        "address": "4907 W Bell Rd, Phoenix, AZ 85308",
        "slug": "phoenix-bellair-az",
        "url": "https://www.planetfitness.com/gyms/phoenix-bellair-az",
        "brand": "Planet Fitness"
      }
    },
    {
      "type": "Feature",
      "geometry": {
        "type": "Point",
        "coordinates": [
          -112.224781,
          33.424098
        ]
      },
      "properties": {
        "name": "Phoenix (Estrella), AZ",
        "address": "7620 W Lower Buckeye Rd, Phoenix, AZ 85043",
        "slug": "phoenix-estrella-az",
        "url": "https://www.planetfitness.com/gyms/phoenix-estrella-az",
        "brand": "Planet Fitness"
      }
    },
    {
      "type": "Feature",
      "geometry": {
        "type": "Point",
        "coordinates": [
          -112.153009,
          33.497147
        ]
      },
      "properties": {
        "name": "Phoenix (Indian School), AZ",
        "address": "4344 W Indian School Rd, Phoenix, AZ 85031-2984",
        "slug": "phoenix-indian-school-az",
        "url": "https://www.planetfitness.com/gyms/phoenix-indian-school-az",
        "brand": "Planet Fitness"
      }
    },
    {
      "type": "Feature",
      "geometry": {
        "type": "Point",
        "coordinates": [
          -112.135485,
          33.394264
        ]
      },
      "properties": {
        "name": "Phoenix (Laveen), AZ",
        "address": "3630 W Southern Ave, Phoenix, AZ 85041",
        "slug": "phoenix-laveen-az",
        "url": "https://www.planetfitness.com/gyms/phoenix-laveen-az",
        "brand": "Planet Fitness"
      }
    },
    {
      "type": "Feature",
      "geometry": {
        "type": "Point",
        "coordinates": [
          -110.9417314,
          31.3667024
        ]
      },
      "properties": {
        "name": "Nogales, AZ",
        "address": "570 W Mariposa Rd, Nogales, AZ 85621",
        "slug": "nogales-az",
        "url": "https://www.planetfitness.com/gyms/nogales-az",
        "brand": "Planet Fitness"
      }
    },
    {
      "type": "Feature",
      "geometry": {
        "type": "Point",
        "coordinates": [
          -110.9606603,
          32.3983674
        ]
      },
      "properties": {
        "name": "Oro Valley (Rooney Ranch), AZ",
        "address": "10525 N Oracle Rd, Oro Valley, AZ 85737",
        "slug": "oro-valley-rooney-ranch-az",
        "url": "https://www.planetfitness.com/gyms/oro-valley-rooney-ranch-az",
        "brand": "Planet Fitness"
      }
    },
    {
      "type": "Feature",
      "geometry": {
        "type": "Point",
        "coordinates": [
          -112.153171,
          33.597288
        ]
      },
      "properties": {
        "name": "Glendale (Cactus), AZ",
        "address": "4414 W Cactus Rd, Glendale, AZ 85304-2338",
        "slug": "glendale-cactus-az",
        "url": "https://www.planetfitness.com/gyms/glendale-cactus-az",
        "brand": "Planet Fitness"
      }
    },
    {
      "type": "Feature",
      "geometry": {
        "type": "Point",
        "coordinates": [
          -112.16972,
          33.537047
        ]
      },
      "properties": {
        "name": "Glendale (Downtown), AZ",
        "address": "5121 W Glendale Ave, Glendale, AZ 85301",
        "slug": "glendale-downtown-az",
        "url": "https://www.planetfitness.com/gyms/glendale-downtown-az",
        "brand": "Planet Fitness"
      }
    },
    {
      "type": "Feature",
      "geometry": {
        "type": "Point",
        "coordinates": [
          -112.238523,
          33.672337
        ]
      },
      "properties": {
        "name": "Peoria (North), AZ",
        "address": "20713 N 83rd Ave, Peoria, AZ 85382",
        "slug": "peoria-north-az",
        "url": "https://www.planetfitness.com/gyms/peoria-north-az",
        "brand": "Planet Fitness"
      }
    },
    {
      "type": "Feature",
      "geometry": {
        "type": "Point",
        "coordinates": [
          -112.221821,
          33.580017
        ]
      },
      "properties": {
        "name": "Peoria (South), AZ",
        "address": "7565 W Peoria Ave, Peoria, AZ 85345",
        "slug": "peoria-south-az",
        "url": "https://www.planetfitness.com/gyms/peoria-south-az",
        "brand": "Planet Fitness"
      }
    },
    {
      "type": "Feature",
      "geometry": {
        "type": "Point",
        "coordinates": [
          -111.63624,
          33.2527342
        ]
      },
      "properties": {
        "name": "Queen Creek, AZ",
        "address": "21545 S Ellsworth Loop Rd, Queen Creek, AZ 85142",
        "slug": "queen-creek-az",
        "url": "https://www.planetfitness.com/gyms/queen-creek-az",
        "brand": "Planet Fitness"
      }
    },
    {
      "type": "Feature",
      "geometry": {
        "type": "Point",
        "coordinates": [
          -111.77413,
          33.406982
        ]
      },
      "properties": {
        "name": "Mesa (Central), AZ",
        "address": "2643 E Broadway Rd, Mesa, AZ 85204-1529",
        "slug": "mesa-central-az",
        "url": "https://www.planetfitness.com/gyms/mesa-central-az",
        "brand": "Planet Fitness"
      }
    },
    {
      "type": "Feature",
      "geometry": {
        "type": "Point",
        "coordinates": [
          -111.68111,
          33.450792
        ]
      },
      "properties": {
        "name": "Mesa (Northeast), AZ",
        "address": "1919 N Power Rd, Mesa, AZ 85205-3728",
        "slug": "mesa-northeast-az",
        "url": "https://www.planetfitness.com/gyms/mesa-northeast-az",
        "brand": "Planet Fitness"
      }
    },
    {
      "type": "Feature",
      "geometry": {
        "type": "Point",
        "coordinates": [
          -111.849326,
          33.420916
        ]
      },
      "properties": {
        "name": "Mesa (West), AZ",
        "address": "825 W University Dr, Mesa, AZ 85201",
        "slug": "mesa-west-az",
        "url": "https://www.planetfitness.com/gyms/mesa-west-az",
        "brand": "Planet Fitness"
      }
    },
    {
      "type": "Feature",
      "geometry": {
        "type": "Point",
        "coordinates": [
          -110.9896914,
          31.9064392
        ]
      },
      "properties": {
        "name": "Green Valley, AZ",
        "address": "100 W Duval Mine Rd, Ste 170, Sahuarita, AZ 85614",
        "slug": "green-valley-az",
        "url": "https://www.planetfitness.com/gyms/green-valley-az",
        "brand": "Planet Fitness"
      }
    },
    {
      "type": "Feature",
      "geometry": {
        "type": "Point",
        "coordinates": [
          -112.4336178,
          34.548768
        ]
      },
      "properties": {
        "name": "Prescott, AZ",
        "address": "1841 E State Hwy 69, Ste 112, Prescott, AZ 86301",
        "slug": "prescott-az",
        "url": "https://www.planetfitness.com/gyms/prescott-az",
        "brand": "Planet Fitness"
      }
    },
    {
      "type": "Feature",
      "geometry": {
        "type": "Point",
        "coordinates": [
          -111.043818,
          32.321535
        ]
      },
      "properties": {
        "name": "Marana, AZ",
        "address": "3840 W River Rd, Tucson, AZ 85741-3793",
        "slug": "marana-az",
        "url": "https://www.planetfitness.com/gyms/marana-az",
        "brand": "Planet Fitness"
      }
    },
    {
      "type": "Feature",
      "geometry": {
        "type": "Point",
        "coordinates": [
          -110.988995,
          32.165745
        ]
      },
      "properties": {
        "name": "Tucson (Irvington & I-19), AZ",
        "address": "4755 S Calle Santa Cruz Rd, Tucson, AZ 85714",
        "slug": "tucson-irvington-i-19-az",
        "url": "https://www.planetfitness.com/gyms/tucson-irvington-i-19-az",
        "brand": "Planet Fitness"
      }
    },
    {
      "type": "Feature",
      "geometry": {
        "type": "Point",
        "coordinates": [
          -110.788097,
          32.20533
        ]
      },
      "properties": {
        "name": "Tucson (Old Spanish Trail), AZ",
        "address": "9590 E 22nd St, Tucson, AZ 85748-7501",
        "slug": "tucson-old-spanish-trail-az",
        "url": "https://www.planetfitness.com/gyms/tucson-old-spanish-trail-az",
        "brand": "Planet Fitness"
      }
    },
    {
      "type": "Feature",
      "geometry": {
        "type": "Point",
        "coordinates": [
          -110.890971,
          32.22071
        ]
      },
      "properties": {
        "name": "Tucson (Swanway Plaza), AZ",
        "address": "4722 E Broadway Blvd, Tucson, AZ 85711",
        "slug": "tucson-swanway-plaza-az",
        "url": "https://www.planetfitness.com/gyms/tucson-swanway-plaza-az",
        "brand": "Planet Fitness"
      }
    },
    {
      "type": "Feature",
      "geometry": {
        "type": "Point",
        "coordinates": [
          -110.954522,
          32.188044
        ]
      },
      "properties": {
        "name": "Tucson (The Bridges), AZ",
        "address": "1125 E Tucson Marketplace Blvd, Tucson, AZ 85713",
        "slug": "tucson-bridges-az",
        "url": "https://www.planetfitness.com/gyms/tucson-bridges-az",
        "brand": "Planet Fitness"
      }
    },
    {
      "type": "Feature",
      "geometry": {
        "type": "Point",
        "coordinates": [
          -110.979528,
          32.293345
        ]
      },
      "properties": {
        "name": "Tucson (Tucson Mall), AZ",
        "address": "4848 N Old Oracle Rd, Tucson, AZ 85705",
        "slug": "tucson-tucson-mall-az",
        "url": "https://www.planetfitness.com/gyms/tucson-tucson-mall-az",
        "brand": "Planet Fitness"
      }
    },
    {
      "type": "Feature",
      "geometry": {
        "type": "Point",
        "coordinates": [
          -111.8631595,
          33.573352
        ]
      },
      "properties": {
        "name": "Scottsdale (Ranch), AZ",
        "address": "10105 E V\u00eda Linda, Ste B-110, Scottsdale, AZ 85258",
        "slug": "scottsdale-ranch-az",
        "url": "https://www.planetfitness.com/gyms/scottsdale-ranch-az",
        "brand": "Planet Fitness"
      }
    },
    {
      "type": "Feature",
      "geometry": {
        "type": "Point",
        "coordinates": [
          -110.0501749,
          34.2482961
        ]
      },
      "properties": {
        "name": "Show Low, AZ",
        "address": "750 W Deuce Of Clubs, Show Low, AZ 85901-5810",
        "slug": "show-low-az",
        "url": "https://www.planetfitness.com/gyms/show-low-az",
        "brand": "Planet Fitness"
      }
    },
    {
      "type": "Feature",
      "geometry": {
        "type": "Point",
        "coordinates": [
          -110.2541209,
          31.5589784
        ]
      },
      "properties": {
        "name": "Sierra Vista, AZ",
        "address": "493 N Hwy 90 Ste 100, Sierra Vista, AZ 85635",
        "slug": "sierra-vista-az",
        "url": "https://www.planetfitness.com/gyms/sierra-vista-az",
        "brand": "Planet Fitness"
      }
    },
    {
      "type": "Feature",
      "geometry": {
        "type": "Point",
        "coordinates": [
          -112.3958288,
          33.6371255
        ]
      },
      "properties": {
        "name": "Surprise, AZ",
        "address": "15569 W Bell Rd, Ste 569, Surprise, AZ 85374",
        "slug": "surprise-az",
        "url": "https://www.planetfitness.com/gyms/surprise-az",
        "brand": "Planet Fitness"
      }
    },
    {
      "type": "Feature",
      "geometry": {
        "type": "Point",
        "coordinates": [
          -111.910388,
          33.395841
        ]
      },
      "properties": {
        "name": "Tempe (East), AZ",
        "address": "3122 S Mcclintock Dr, Tempe, AZ 85282-5629",
        "slug": "tempe-east-az",
        "url": "https://www.planetfitness.com/gyms/tempe-east-az",
        "brand": "Planet Fitness"
      }
    },
    {
      "type": "Feature",
      "geometry": {
        "type": "Point",
        "coordinates": [
          -111.961672,
          33.391574
        ]
      },
      "properties": {
        "name": "Tempe (West), AZ",
        "address": "1405 W Southern Ave, Tempe, AZ 85282",
        "slug": "tempe-west-az",
        "url": "https://www.planetfitness.com/gyms/tempe-west-az",
        "brand": "Planet Fitness"
      }
    },
    {
      "type": "Feature",
      "geometry": {
        "type": "Point",
        "coordinates": [
          -114.609057,
          32.70504
        ]
      },
      "properties": {
        "name": "Yuma, AZ",
        "address": "1232 S Castle Dome Ave, Yuma, AZ 85365-5302",
        "slug": "yuma-az",
        "url": "https://www.planetfitness.com/gyms/yuma-az",
        "brand": "Planet Fitness"
      }
    },
    {
      "type": "Feature",
      "geometry": {
        "type": "Point",
        "coordinates": [
          -114.447327,
          32.667839
        ]
      },
      "properties": {
        "name": "Yuma (East), AZ",
        "address": "11274 S Fortuna Rd, Yuma, AZ 85367",
        "slug": "yuma-east-az",
        "url": "https://www.planetfitness.com/gyms/yuma-east-az",
        "brand": "Planet Fitness"
      }
    },
    {
      "type": "Feature",
      "geometry": {
        "type": "Point",
        "coordinates": [
          -94.2227368,
          36.3586055
        ]
      },
      "properties": {
        "name": "Bentonville, AR",
        "address": "1001 SW Westpark Dr, Bentonville, AR 72712",
        "slug": "bentonville-ar",
        "url": "https://www.planetfitness.com/gyms/bentonville-ar",
        "brand": "Planet Fitness"
      }
    },
    {
      "type": "Feature",
      "geometry": {
        "type": "Point",
        "coordinates": [
          -92.6671628,
          33.2325273
        ]
      },
      "properties": {
        "name": "El Dorado, AR",
        "address": "2028 N West Ave, El Dorado, AR 71730",
        "slug": "el-dorado-ar",
        "url": "https://www.planetfitness.com/gyms/el-dorado-ar",
        "brand": "Planet Fitness"
      }
    },
    {
      "type": "Feature",
      "geometry": {
        "type": "Point",
        "coordinates": [
          -93.1160219,
          36.2495846
        ]
      },
      "properties": {
        "name": "Harrison, AR",
        "address": "615 Hwy 62 65 North, Harrison, AR 72601",
        "slug": "harrison-ar",
        "url": "https://www.planetfitness.com/gyms/harrison-ar",
        "brand": "Planet Fitness"
      }
    },
    {
      "type": "Feature",
      "geometry": {
        "type": "Point",
        "coordinates": [
          -94.119726,
          36.084851
        ]
      },
      "properties": {
        "name": "Fayetteville (East), AR",
        "address": "1768 N Crossover Rd, Fayetteville, AR 72701",
        "slug": "fayetteville-east-ar",
        "url": "https://www.planetfitness.com/gyms/fayetteville-east-ar",
        "brand": "Planet Fitness"
      }
    },
    {
      "type": "Feature",
      "geometry": {
        "type": "Point",
        "coordinates": [
          -94.208244,
          36.0772
        ]
      },
      "properties": {
        "name": "Fayetteville (West), AR",
        "address": "3300 W Grove Dr, Fayetteville, AR 72704-5001",
        "slug": "fayetteville-west-ar",
        "url": "https://www.planetfitness.com/gyms/fayetteville-west-ar",
        "brand": "Planet Fitness"
      }
    },
    {
      "type": "Feature",
      "geometry": {
        "type": "Point",
        "coordinates": [
          -92.5740818,
          34.5787125
        ]
      },
      "properties": {
        "name": "Benton, AR",
        "address": "1515 Military Rd, Benton, AR 72015",
        "slug": "benton-ar",
        "url": "https://www.planetfitness.com/gyms/benton-ar",
        "brand": "Planet Fitness"
      }
    },
    {
      "type": "Feature",
      "geometry": {
        "type": "Point",
        "coordinates": [
          -93.0614655,
          34.4755706
        ]
      },
      "properties": {
        "name": "Hot Springs, AR",
        "address": "3310 Central Ave, Hot Springs, AR 71913",
        "slug": "hot-springs-ar",
        "url": "https://www.planetfitness.com/gyms/hot-springs-ar",
        "brand": "Planet Fitness"
      }
    },
    {
      "type": "Feature",
      "geometry": {
        "type": "Point",
        "coordinates": [
          -92.4273005,
          35.0931994
        ]
      },
      "properties": {
        "name": "Conway, AR",
        "address": "150 E Oak St, Conway, AR 72032",
        "slug": "conway-ar",
        "url": "https://www.planetfitness.com/gyms/conway-ar",
        "brand": "Planet Fitness"
      }
    },
    {
      "type": "Feature",
      "geometry": {
        "type": "Point",
        "coordinates": [
          -94.3668383,
          35.3617679
        ]
      },
      "properties": {
        "name": "Fort Smith, AR",
        "address": "5825 Rogers Ave, Fort Smith, AR 72903",
        "slug": "fort-smith-ar",
        "url": "https://www.planetfitness.com/gyms/fort-smith-ar",
        "brand": "Planet Fitness"
      }
    },
    {
      "type": "Feature",
      "geometry": {
        "type": "Point",
        "coordinates": [
          -94.144978,
          36.336163
        ]
      },
      "properties": {
        "name": "Rogers, AR",
        "address": "100 N Dixieland Rd, Suite G, Rogers, AR 72756-1123",
        "slug": "rogers-ar",
        "url": "https://www.planetfitness.com/gyms/rogers-ar",
        "brand": "Planet Fitness"
      }
    },
    {
      "type": "Feature",
      "geometry": {
        "type": "Point",
        "coordinates": [
          -94.149475,
          36.281201
        ]
      },
      "properties": {
        "name": "Rogers (Pleasant Crossing), AR",
        "address": "4315 S Pleasant Crossing Blvd, Ste 101, Rogers, AR 72758-1347",
        "slug": "rogers-pleasant-crossing-ar",
        "url": "https://www.planetfitness.com/gyms/rogers-pleasant-crossing-ar",
        "brand": "Planet Fitness"
      }
    },
    {
      "type": "Feature",
      "geometry": {
        "type": "Point",
        "coordinates": [
          -92.1043007,
          34.8846387
        ]
      },
      "properties": {
        "name": "Jacksonville, AR",
        "address": "612 NJP Wright Loop Rd, Jacksonville, AR 72076",
        "slug": "jacksonville-ar",
        "url": "https://www.planetfitness.com/gyms/jacksonville-ar",
        "brand": "Planet Fitness"
      }
    },
    {
      "type": "Feature",
      "geometry": {
        "type": "Point",
        "coordinates": [
          -91.687374,
          35.2517077
        ]
      },
      "properties": {
        "name": "Searcy, AR",
        "address": "3500 E Race St, Searcy, AR 72143",
        "slug": "searcy-ar",
        "url": "https://www.planetfitness.com/gyms/searcy-ar",
        "brand": "Planet Fitness"
      }
    },
    {
      "type": "Feature",
      "geometry": {
        "type": "Point",
        "coordinates": [
          -90.6794212,
          35.8260269
        ]
      },
      "properties": {
        "name": "Jonesboro, AR",
        "address": "1525 S Caraway Rd, Ste A, Jonesboro, AR 72401",
        "slug": "jonesboro-ar",
        "url": "https://www.planetfitness.com/gyms/jonesboro-ar",
        "brand": "Planet Fitness"
      }
    },
    {
      "type": "Feature",
      "geometry": {
        "type": "Point",
        "coordinates": [
          -93.134689,
          35.282115
        ]
      },
      "properties": {
        "name": "Russellville, AR",
        "address": "405 N Arkansas Ave, Russellville, AR 72801",
        "slug": "russellville-ar",
        "url": "https://www.planetfitness.com/gyms/russellville-ar",
        "brand": "Planet Fitness"
      }
    },
    {
      "type": "Feature",
      "geometry": {
        "type": "Point",
        "coordinates": [
          -92.0063228,
          34.1993846
        ]
      },
      "properties": {
        "name": "Pine Bluff, AR",
        "address": "2901 S Olive St, Pine Bluff, AR 71603",
        "slug": "pine-bluff-ar",
        "url": "https://www.planetfitness.com/gyms/pine-bluff-ar",
        "brand": "Planet Fitness"
      }
    },
    {
      "type": "Feature",
      "geometry": {
        "type": "Point",
        "coordinates": [
          -94.5171996,
          36.1825346
        ]
      },
      "properties": {
        "name": "Siloam Springs, AR",
        "address": "2137 Ravenwood Plaza, Siloam Springs, AR 72761",
        "slug": "siloam-springs-ar",
        "url": "https://www.planetfitness.com/gyms/siloam-springs-ar",
        "brand": "Planet Fitness"
      }
    },
    {
      "type": "Feature",
      "geometry": {
        "type": "Point",
        "coordinates": [
          -92.343244,
          34.670557
        ]
      },
      "properties": {
        "name": "Little Rock (Geyer Springs), AR",
        "address": "8721 Geyer Springs Rd, Little Rock, AR 72209",
        "slug": "little-rock-geyer-springs-ar",
        "url": "https://www.planetfitness.com/gyms/little-rock-geyer-springs-ar",
        "brand": "Planet Fitness"
      }
    },
    {
      "type": "Feature",
      "geometry": {
        "type": "Point",
        "coordinates": [
          -92.400494,
          34.755077
        ]
      },
      "properties": {
        "name": "Little Rock (West Markham), AR",
        "address": "11400 W Markham St, Little Rock, AR 72211",
        "slug": "little-rock-west-markham-ar",
        "url": "https://www.planetfitness.com/gyms/little-rock-west-markham-ar",
        "brand": "Planet Fitness"
      }
    },
    {
      "type": "Feature",
      "geometry": {
        "type": "Point",
        "coordinates": [
          -92.256683,
          34.797619
        ]
      },
      "properties": {
        "name": "North Little Rock, AR",
        "address": "4617 John F Kennedy Blvd, Little Rock, AR 72116",
        "slug": "north-little-rock-ar",
        "url": "https://www.planetfitness.com/gyms/north-little-rock-ar",
        "brand": "Planet Fitness"
      }
    },
    {
      "type": "Feature",
      "geometry": {
        "type": "Point",
        "coordinates": [
          -94.1759338,
          36.1735099
        ]
      },
      "properties": {
        "name": "Springdale, AR",
        "address": "4093 W Sunset Ave Ste 108, Springdale, AR 72762-4700",
        "slug": "springdale-ar",
        "url": "https://www.planetfitness.com/gyms/springdale-ar",
        "brand": "Planet Fitness"
      }
    },
    {
      "type": "Feature",
      "geometry": {
        "type": "Point",
        "coordinates": [
          -94.3253441,
          35.4426747
        ]
      },
      "properties": {
        "name": "Van Buren, AR",
        "address": "280 Cloverleaf Plaza, Van Buren, AR 72956",
        "slug": "van-buren-ar",
        "url": "https://www.planetfitness.com/gyms/van-buren-ar",
        "brand": "Planet Fitness"
      }
    },
    {
      "type": "Feature",
      "geometry": {
        "type": "Point",
        "coordinates": [
          -119.04002,
          35.413542
        ]
      },
      "properties": {
        "name": "Bakersfield (Airport Dr), CA",
        "address": "731 Airport Dr, Bakersfield, CA 93308",
        "slug": "bakersfield-airport-dr-ca",
        "url": "https://www.planetfitness.com/gyms/bakersfield-airport-dr-ca",
        "brand": "Planet Fitness"
      }
    },
    {
      "type": "Feature",
      "geometry": {
        "type": "Point",
        "coordinates": [
          -119.046206,
          35.366455
        ]
      },
      "properties": {
        "name": "Bakersfield (California Ave), CA",
        "address": "4001 California Ave, Bakersfield, CA 93309",
        "slug": "bakersfield-california-ave-ca",
        "url": "https://www.planetfitness.com/gyms/bakersfield-california-ave-ca",
        "brand": "Planet Fitness"
      }
    },
    {
      "type": "Feature",
      "geometry": {
        "type": "Point",
        "coordinates": [
          -118.935582,
          35.37489
        ]
      },
      "properties": {
        "name": "Bakersfield (Niles St), CA",
        "address": "6151 Niles St, Bakersfield, CA 93306",
        "slug": "bakersfield-niles-st-ca",
        "url": "https://www.planetfitness.com/gyms/bakersfield-niles-st-ca",
        "brand": "Planet Fitness"
      }
    },
    {
      "type": "Feature",
      "geometry": {
        "type": "Point",
        "coordinates": [
          -119.073458,
          35.297031
        ]
      },
      "properties": {
        "name": "Bakersfield (Panama and Ashe), CA",
        "address": "6300 Ashe Rd, Bakersfield, CA 93313",
        "slug": "bakersfield-panama-and-ashe-ca",
        "url": "https://www.planetfitness.com/gyms/bakersfield-panama-and-ashe-ca",
        "brand": "Planet Fitness"
      }
    },
    {
      "type": "Feature",
      "geometry": {
        "type": "Point",
        "coordinates": [
          -119.129567,
          35.348054
        ]
      },
      "properties": {
        "name": "Bakersfield (Seven Oaks), CA",
        "address": "11425 Stockdale Hwy, Bakersfield, CA 93311-1389",
        "slug": "bakersfield-seven-oaks-ca",
        "url": "https://www.planetfitness.com/gyms/bakersfield-seven-oaks-ca",
        "brand": "Planet Fitness"
      }
    },
    {
      "type": "Feature",
      "geometry": {
        "type": "Point",
        "coordinates": [
          -120.5987896,
          37.3616511
        ]
      },
      "properties": {
        "name": "Atwater, CA",
        "address": "571 Bellevue Rd, Atwater, CA 95301-2928",
        "slug": "atwater-ca",
        "url": "https://www.planetfitness.com/gyms/atwater-ca",
        "brand": "Planet Fitness"
      }
    },
    {
      "type": "Feature",
      "geometry": {
        "type": "Point",
        "coordinates": [
          -117.9663296,
          34.0864697
        ]
      },
      "properties": {
        "name": "Baldwin Park, CA",
        "address": "14121 Ramona Blvd, Baldwin Park, CA 91706-3146",
        "slug": "baldwin-park-ca",
        "url": "https://www.planetfitness.com/gyms/baldwin-park-ca",
        "brand": "Planet Fitness"
      }
    },
    {
      "type": "Feature",
      "geometry": {
        "type": "Point",
        "coordinates": [
          -120.6041322,
          35.1311039
        ]
      },
      "properties": {
        "name": "Arroyo Grande, CA",
        "address": "1576 West Branch Street, Arroyo Grande, CA 93420",
        "slug": "arroyo-grande-ca",
        "url": "https://www.planetfitness.com/gyms/arroyo-grande-ca",
        "brand": "Planet Fitness"
      }
    },
    {
      "type": "Feature",
      "geometry": {
        "type": "Point",
        "coordinates": [
          -118.1166295,
          34.0788118
        ]
      },
      "properties": {
        "name": "Alhambra, CA",
        "address": "610 E Valley Blvd, Alhambra, CA 91801",
        "slug": "alhambra-ca",
        "url": "https://www.planetfitness.com/gyms/alhambra-ca",
        "brand": "Planet Fitness"
      }
    },
    {
      "type": "Feature",
      "geometry": {
        "type": "Point",
        "coordinates": [
          -117.9387527,
          33.8019288
        ]
      },
      "properties": {
        "name": "Anaheim (West Katella Ave), CA",
        "address": "1620 W Katella Ave, Anaheim, CA 92802",
        "slug": "anaheim-west-katella-ave-ca",
        "url": "https://www.planetfitness.com/gyms/anaheim-west-katella-ave-ca",
        "brand": "Planet Fitness"
      }
    },
    {
      "type": "Feature",
      "geometry": {
        "type": "Point",
        "coordinates": [
          -121.7655745,
          37.9637569
        ]
      },
      "properties": {
        "name": "Antioch, CA",
        "address": "4863 Lone Tree Prkwy, Antioch, CA 94531",
        "slug": "antioch-ca",
        "url": "https://www.planetfitness.com/gyms/antioch-ca",
        "brand": "Planet Fitness"
      }
    },
    {
      "type": "Feature",
      "geometry": {
        "type": "Point",
        "coordinates": [
          -120.6566774,
          35.4754715
        ]
      },
      "properties": {
        "name": "Atascadero, CA",
        "address": "8210 El Camino Real, Atascadero, CA 93422-5215",
        "slug": "atascadero-ca",
        "url": "https://www.planetfitness.com/gyms/atascadero-ca",
        "brand": "Planet Fitness"
      }
    },
    {
      "type": "Feature",
      "geometry": {
        "type": "Point",
        "coordinates": [
          -116.9489668,
          33.92247
        ]
      },
      "properties": {
        "name": "Beaumont, CA",
        "address": "1579 E 2nd St, Beaumont, CA 92223",
        "slug": "beaumont-ca",
        "url": "https://www.planetfitness.com/gyms/beaumont-ca",
        "brand": "Planet Fitness"
      }
    },
    {
      "type": "Feature",
      "geometry": {
        "type": "Point",
        "coordinates": [
          -118.009516,
          33.833077
        ]
      },
      "properties": {
        "name": "Buena Park, CA",
        "address": "8960 Knott Ave, Buena Park, CA 90620-4137",
        "slug": "buena-park-ca",
        "url": "https://www.planetfitness.com/gyms/buena-park-ca",
        "brand": "Planet Fitness"
      }
    },
    {
      "type": "Feature",
      "geometry": {
        "type": "Point",
        "coordinates": [
          -117.987463,
          33.848579
        ]
      },
      "properties": {
        "name": "Buena Park (La Palma Ave), CA",
        "address": "8379 La Palma Ave, Buena Park, CA 90620",
        "slug": "buena-park-la-palma-ave-ca",
        "url": "https://www.planetfitness.com/gyms/buena-park-la-palma-ave-ca",
        "brand": "Planet Fitness"
      }
    },
    {
      "type": "Feature",
      "geometry": {
        "type": "Point",
        "coordinates": [
          -118.27484,
          33.799786
        ]
      },
      "properties": {
        "name": "Carson (Lomita Blvd), CA",
        "address": "123 E Lomita Blvd, Carson, CA 90745-6305",
        "slug": "carson-lomita-blvd-ca",
        "url": "https://www.planetfitness.com/gyms/carson-lomita-blvd-ca",
        "brand": "Planet Fitness"
      }
    },
    {
      "type": "Feature",
      "geometry": {
        "type": "Point",
        "coordinates": [
          -118.283811,
          33.840248
        ]
      },
      "properties": {
        "name": "Carson (Town Center), CA",
        "address": "504 Carson Town Center N, Carson, CA 90745",
        "slug": "carson-town-center-ca",
        "url": "https://www.planetfitness.com/gyms/carson-town-center-ca",
        "brand": "Planet Fitness"
      }
    },
    {
      "type": "Feature",
      "geometry": {
        "type": "Point",
        "coordinates": [
          -118.1403481,
          33.8757455
        ]
      },
      "properties": {
        "name": "Bellflower, CA",
        "address": "9055 Artesia Blvd, Bellflower, CA 90706",
        "slug": "bellflower-ca",
        "url": "https://www.planetfitness.com/gyms/bellflower-ca",
        "brand": "Planet Fitness"
      }
    },
    {
      "type": "Feature",
      "geometry": {
        "type": "Point",
        "coordinates": [
          -118.3682423,
          34.2002768
        ]
      },
      "properties": {
        "name": "Burbank, CA",
        "address": "10950 Sherman Way, Ste 160, Burbank, CA 91505",
        "slug": "burbank-ca",
        "url": "https://www.planetfitness.com/gyms/burbank-ca",
        "brand": "Planet Fitness"
      }
    },
    {
      "type": "Feature",
      "geometry": {
        "type": "Point",
        "coordinates": [
          -119.0362845,
          34.2349756
        ]
      },
      "properties": {
        "name": "Camarillo, CA",
        "address": "2440 Las Posas Rd, Camarillo, CA 93010",
        "slug": "camarillo-ca",
        "url": "https://www.planetfitness.com/gyms/camarillo-ca",
        "brand": "Planet Fitness"
      }
    },
    {
      "type": "Feature",
      "geometry": {
        "type": "Point",
        "coordinates": [
          -115.4972035,
          32.6909589
        ]
      },
      "properties": {
        "name": "Calexico, CA",
        "address": "2304 Imperial Ave, Calexico, CA 92231",
        "slug": "calexico-ca",
        "url": "https://www.planetfitness.com/gyms/calexico-ca",
        "brand": "Planet Fitness"
      }
    },
    {
      "type": "Feature",
      "geometry": {
        "type": "Point",
        "coordinates": [
          -116.4594642,
          33.798197
        ]
      },
      "properties": {
        "name": "Cathedral City, CA",
        "address": "34461 Date Palm Dr, Cathedral City, CA 92234",
        "slug": "cathedral-city-ca",
        "url": "https://www.planetfitness.com/gyms/cathedral-city-ca",
        "brand": "Planet Fitness"
      }
    },
    {
      "type": "Feature",
      "geometry": {
        "type": "Point",
        "coordinates": [
          -117.3255808,
          33.1803234
        ]
      },
      "properties": {
        "name": "Carlsbad, CA",
        "address": "2502 El Camino Real, Carlsbad, CA 92008",
        "slug": "carlsbad-ca",
        "url": "https://www.planetfitness.com/gyms/carlsbad-ca",
        "brand": "Planet Fitness"
      }
    },
    {
      "type": "Feature",
      "geometry": {
        "type": "Point",
        "coordinates": [
          -120.9407552,
          37.5930809
        ]
      },
      "properties": {
        "name": "Ceres, CA",
        "address": "2916 E Whitmore Ave, Ceres, CA 95307",
        "slug": "ceres-ca",
        "url": "https://www.planetfitness.com/gyms/ceres-ca",
        "brand": "Planet Fitness"
      }
    },
    {
      "type": "Feature",
      "geometry": {
        "type": "Point",
        "coordinates": [
          -118.058191,
          33.8696067
        ]
      },
      "properties": {
        "name": "Cerritos, CA",
        "address": "12831 Towne Center Dr, Cerritos, CA 90703",
        "slug": "cerritos-ca",
        "url": "https://www.planetfitness.com/gyms/cerritos-ca",
        "brand": "Planet Fitness"
      }
    },
    {
      "type": "Feature",
      "geometry": {
        "type": "Point",
        "coordinates": [
          -118.5805724,
          34.2483808
        ]
      },
      "properties": {
        "name": "Chatsworth, CA",
        "address": "9825 Mason Ave, Chatsworth, CA 91311",
        "slug": "chatsworth-ca",
        "url": "https://www.planetfitness.com/gyms/chatsworth-ca",
        "brand": "Planet Fitness"
      }
    },
    {
      "type": "Feature",
      "geometry": {
        "type": "Point",
        "coordinates": [
          -121.8073195,
          39.7292092
        ]
      },
      "properties": {
        "name": "Chico (E 20th St), CA",
        "address": "1950 East 20th St, Chico, CA 95928",
        "slug": "chico-e-20th-st-ca",
        "url": "https://www.planetfitness.com/gyms/chico-e-20th-st-ca",
        "brand": "Planet Fitness"
      }
    },
    {
      "type": "Feature",
      "geometry": {
        "type": "Point",
        "coordinates": [
          -117.081416,
          32.606078
        ]
      },
      "properties": {
        "name": "Chula Vista (Broadway Ave), CA",
        "address": "1210 Broadway, Chula Vista, CA 91911",
        "slug": "chula-vista-broadway-ave-ca",
        "url": "https://www.planetfitness.com/gyms/chula-vista-broadway-ave-ca",
        "brand": "Planet Fitness"
      }
    },
    {
      "type": "Feature",
      "geometry": {
        "type": "Point",
        "coordinates": [
          -116.970603,
          32.623399
        ]
      },
      "properties": {
        "name": "Chula Vista (Otay Ranch), CA",
        "address": "2015 Birch Rd, Unit 0150, Chula Vista, CA 91915",
        "slug": "chula-vista-otay-ranch-ca",
        "url": "https://www.planetfitness.com/gyms/chula-vista-otay-ranch-ca",
        "brand": "Planet Fitness"
      }
    },
    {
      "type": "Feature",
      "geometry": {
        "type": "Point",
        "coordinates": [
          -117.595405,
          33.8768
        ]
      },
      "properties": {
        "name": "Corona, CA",
        "address": "1540 W 6th St, Corona, CA 92882",
        "slug": "corona-ca",
        "url": "https://www.planetfitness.com/gyms/corona-ca",
        "brand": "Planet Fitness"
      }
    },
    {
      "type": "Feature",
      "geometry": {
        "type": "Point",
        "coordinates": [
          -117.514314,
          33.822809
        ]
      },
      "properties": {
        "name": "Corona (Grand Oaks), CA",
        "address": "3685 Grand Oaks, Corona, CA 92881",
        "slug": "corona-grand-oaks-ca",
        "url": "https://www.planetfitness.com/gyms/corona-grand-oaks-ca",
        "brand": "Planet Fitness"
      }
    },
    {
      "type": "Feature",
      "geometry": {
        "type": "Point",
        "coordinates": [
          -121.2706381,
          38.6941663
        ]
      },
      "properties": {
        "name": "Citrus Heights, CA",
        "address": "7016 Sunrise Blvd, Citrus Heights, CA 95610",
        "slug": "citrus-heights-ca",
        "url": "https://www.planetfitness.com/gyms/citrus-heights-ca",
        "brand": "Planet Fitness"
      }
    },
    {
      "type": "Feature",
      "geometry": {
        "type": "Point",
        "coordinates": [
          -117.6847577,
          34.0312766
        ]
      },
      "properties": {
        "name": "Chino, CA",
        "address": "5515 Philadelphia St, Chino, CA 91710",
        "slug": "chino-ca",
        "url": "https://www.planetfitness.com/gyms/chino-ca",
        "brand": "Planet Fitness"
      }
    },
    {
      "type": "Feature",
      "geometry": {
        "type": "Point",
        "coordinates": [
          -122.0323496,
          37.9947856
        ]
      },
      "properties": {
        "name": "Concord, CA",
        "address": "3375 Port Chicago Hwy, Suite 51, Concord, CA 94520",
        "slug": "concord-ca",
        "url": "https://www.planetfitness.com/gyms/concord-ca",
        "brand": "Planet Fitness"
      }
    },
    {
      "type": "Feature",
      "geometry": {
        "type": "Point",
        "coordinates": [
          -116.1829636,
          33.6824763
        ]
      },
      "properties": {
        "name": "Coachella, CA",
        "address": "50249 Cesar Chavez St, Coachella, CA 92236",
        "slug": "coachella-ca",
        "url": "https://www.planetfitness.com/gyms/coachella-ca",
        "brand": "Planet Fitness"
      }
    },
    {
      "type": "Feature",
      "geometry": {
        "type": "Point",
        "coordinates": [
          -118.2213839,
          33.8975878
        ]
      },
      "properties": {
        "name": "Compton, CA",
        "address": "235 E Compton Blvd, Compton, CA 90220",
        "slug": "compton-ca",
        "url": "https://www.planetfitness.com/gyms/compton-ca",
        "brand": "Planet Fitness"
      }
    },
    {
      "type": "Feature",
      "geometry": {
        "type": "Point",
        "coordinates": [
          -119.7024848,
          36.8073326
        ]
      },
      "properties": {
        "name": "Clovis, CA",
        "address": "634 Shaw Ave, Clovis, CA 93612",
        "slug": "clovis-ca",
        "url": "https://www.planetfitness.com/gyms/clovis-ca",
        "brand": "Planet Fitness"
      }
    },
    {
      "type": "Feature",
      "geometry": {
        "type": "Point",
        "coordinates": [
          -117.9171637,
          33.6544405
        ]
      },
      "properties": {
        "name": "Costa Mesa, CA",
        "address": "2200 Harbor Blvd, Costa Mesa, CA 92627",
        "slug": "costa-mesa-ca",
        "url": "https://www.planetfitness.com/gyms/costa-mesa-ca",
        "brand": "Planet Fitness"
      }
    },
    {
      "type": "Feature",
      "geometry": {
        "type": "Point",
        "coordinates": [
          -117.9045323,
          34.1063384
        ]
      },
      "properties": {
        "name": "Covina, CA",
        "address": "1480 N Azusa Ave, Ste A, Covina, CA 91722",
        "slug": "covina-ca",
        "url": "https://www.planetfitness.com/gyms/covina-ca",
        "brand": "Planet Fitness"
      }
    },
    {
      "type": "Feature",
      "geometry": {
        "type": "Point",
        "coordinates": [
          -122.4701064,
          37.6874775
        ]
      },
      "properties": {
        "name": "Daly City, CA",
        "address": "2945 Junipero Serra Blvd, Daly City, CA 94014-2549",
        "slug": "daly-city-ca",
        "url": "https://www.planetfitness.com/gyms/daly-city-ca",
        "brand": "Planet Fitness"
      }
    },
    {
      "type": "Feature",
      "geometry": {
        "type": "Point",
        "coordinates": [
          -121.7246968,
          38.5411084
        ]
      },
      "properties": {
        "name": "Davis, CA",
        "address": "2135 Cowell Blvd, Davis, CA 95618-6388",
        "slug": "davis-ca",
        "url": "https://www.planetfitness.com/gyms/davis-ca",
        "brand": "Planet Fitness"
      }
    },
    {
      "type": "Feature",
      "geometry": {
        "type": "Point",
        "coordinates": [
          -119.2507683,
          35.7769812
        ]
      },
      "properties": {
        "name": "Delano, CA",
        "address": "625 Cecil Ave, Delano, CA 93215",
        "slug": "delano-ca",
        "url": "https://www.planetfitness.com/gyms/delano-ca",
        "brand": "Planet Fitness"
      }
    },
    {
      "type": "Feature",
      "geometry": {
        "type": "Point",
        "coordinates": [
          -118.1145771,
          33.9543166
        ]
      },
      "properties": {
        "name": "Downey, CA",
        "address": "9501 Lakewood Blvd, Downey, CA 90240-3306",
        "slug": "downey-ca",
        "url": "https://www.planetfitness.com/gyms/downey-ca",
        "brand": "Planet Fitness"
      }
    },
    {
      "type": "Feature",
      "geometry": {
        "type": "Point",
        "coordinates": [
          -117.8397753,
          33.9744088
        ]
      },
      "properties": {
        "name": "Diamond Bar, CA",
        "address": "2797 S Diamond Bar Blvd, Diamond Bar, CA 91765-3414",
        "slug": "diamond-bar-ca",
        "url": "https://www.planetfitness.com/gyms/diamond-bar-ca",
        "brand": "Planet Fitness"
      }
    },
    {
      "type": "Feature",
      "geometry": {
        "type": "Point",
        "coordinates": [
          -117.9794965,
          34.1404228
        ]
      },
      "properties": {
        "name": "Duarte, CA",
        "address": "1193 Huntington Dr, Duarte, CA 91010",
        "slug": "duarte-ca",
        "url": "https://www.planetfitness.com/gyms/duarte-ca",
        "brand": "Planet Fitness"
      }
    },
    {
      "type": "Feature",
      "geometry": {
        "type": "Point",
        "coordinates": [
          -117.097974,
          33.111465
        ]
      },
      "properties": {
        "name": "Escondido (Auto Park Way), CA",
        "address": "1256 Auto Park Way, Escondido, CA 92029",
        "slug": "escondido-auto-park-way-ca",
        "url": "https://www.planetfitness.com/gyms/escondido-auto-park-way-ca",
        "brand": "Planet Fitness"
      }
    },
    {
      "type": "Feature",
      "geometry": {
        "type": "Point",
        "coordinates": [
          -117.063309,
          33.131129
        ]
      },
      "properties": {
        "name": "Escondido, CA",
        "address": "1349 E Valley Pkwy, Escondido, CA 92027-2311",
        "slug": "escondido-ca",
        "url": "https://www.planetfitness.com/gyms/escondido-ca",
        "brand": "Planet Fitness"
      }
    },
    {
      "type": "Feature",
      "geometry": {
        "type": "Point",
        "coordinates": [
          -118.0239376,
          34.0715156
        ]
      },
      "properties": {
        "name": "El Monte, CA",
        "address": "3542 N Peck Rd, El Monte, CA 91731",
        "slug": "el-monte-ca",
        "url": "https://www.planetfitness.com/gyms/el-monte-ca",
        "brand": "Planet Fitness"
      }
    },
    {
      "type": "Feature",
      "geometry": {
        "type": "Point",
        "coordinates": [
          -115.5720252,
          32.8098359
        ]
      },
      "properties": {
        "name": "El Centro, CA",
        "address": "1910 N Imperial Ave, El Centro, CA 92243",
        "slug": "el-centro-ca",
        "url": "https://www.planetfitness.com/gyms/el-centro-ca",
        "brand": "Planet Fitness"
      }
    },
    {
      "type": "Feature",
      "geometry": {
        "type": "Point",
        "coordinates": [
          -121.3921993,
          38.4105339
        ]
      },
      "properties": {
        "name": "Elk Grove, CA",
        "address": "8457 Elk Grove Blvd, Elk Grove, CA 95758",
        "slug": "elk-grove-ca",
        "url": "https://www.planetfitness.com/gyms/elk-grove-ca",
        "brand": "Planet Fitness"
      }
    },
    {
      "type": "Feature",
      "geometry": {
        "type": "Point",
        "coordinates": [
          -122.2814114,
          37.8338066
        ]
      },
      "properties": {
        "name": "Emeryville, CA",
        "address": "4349 San Pablo Ave, Emeryville, CA 94608",
        "slug": "emeryville-ca",
        "url": "https://www.planetfitness.com/gyms/emeryville-ca",
        "brand": "Planet Fitness"
      }
    },
    {
      "type": "Feature",
      "geometry": {
        "type": "Point",
        "coordinates": [
          -117.441137,
          34.068294
        ]
      },
      "properties": {
        "name": "Fontana, CA",
        "address": "10200 Juniper Ave, Fontana, CA 92335",
        "slug": "fontana-ca",
        "url": "https://www.planetfitness.com/gyms/fontana-ca",
        "brand": "Planet Fitness"
      }
    },
    {
      "type": "Feature",
      "geometry": {
        "type": "Point",
        "coordinates": [
          -117.479423,
          34.149068
        ]
      },
      "properties": {
        "name": "Fontana (Summit Ave), CA",
        "address": "14940 Summit Ave, Fontana, CA 92336",
        "slug": "fontana-summit-ave-ca",
        "url": "https://www.planetfitness.com/gyms/fontana-summit-ave-ca",
        "brand": "Planet Fitness"
      }
    },
    {
      "type": "Feature",
      "geometry": {
        "type": "Point",
        "coordinates": [
          -118.5129448,
          34.1618261
        ]
      },
      "properties": {
        "name": "Encino, CA",
        "address": "17401 Ventura Blvd, Encino, CA 91316",
        "slug": "encino-ca",
        "url": "https://www.planetfitness.com/gyms/encino-ca",
        "brand": "Planet Fitness"
      }
    },
    {
      "type": "Feature",
      "geometry": {
        "type": "Point",
        "coordinates": [
          -121.2910252,
          38.6548225
        ]
      },
      "properties": {
        "name": "Fair Oaks, CA",
        "address": "4854 San Juan Ave, Fair Oaks, CA 95628",
        "slug": "fair-oaks-ca",
        "url": "https://www.planetfitness.com/gyms/fair-oaks-ca",
        "brand": "Planet Fitness"
      }
    },
    {
      "type": "Feature",
      "geometry": {
        "type": "Point",
        "coordinates": [
          -122.0361112,
          38.2756222
        ]
      },
      "properties": {
        "name": "Fairfield, CA",
        "address": "2525 N Texas St, Ste D, Fairfield, CA 94533",
        "slug": "fairfield-ca",
        "url": "https://www.planetfitness.com/gyms/fairfield-ca",
        "brand": "Planet Fitness"
      }
    },
    {
      "type": "Feature",
      "geometry": {
        "type": "Point",
        "coordinates": [
          -124.1916133,
          40.7779477
        ]
      },
      "properties": {
        "name": "Eureka, CA",
        "address": "3300 Broadway St, Ste 700, Eureka, CA 95501",
        "slug": "eureka-ca",
        "url": "https://www.planetfitness.com/gyms/eureka-ca",
        "brand": "Planet Fitness"
      }
    },
    {
      "type": "Feature",
      "geometry": {
        "type": "Point",
        "coordinates": [
          -121.1581541,
          38.6693079
        ]
      },
      "properties": {
        "name": "Folsom, CA",
        "address": "875 E Bidwell St, Folsom, CA 95630-3349",
        "slug": "folsom-ca",
        "url": "https://www.planetfitness.com/gyms/folsom-ca",
        "brand": "Planet Fitness"
      }
    },
    {
      "type": "Feature",
      "geometry": {
        "type": "Point",
        "coordinates": [
          -117.6670362,
          33.6803857
        ]
      },
      "properties": {
        "name": "Foothill Ranch, CA",
        "address": "26682 Portola Pkwy, Foothill Ranch, CA 92610",
        "slug": "foothill-ranch-ca",
        "url": "https://www.planetfitness.com/gyms/foothill-ranch-ca",
        "brand": "Planet Fitness"
      }
    },
    {
      "type": "Feature",
      "geometry": {
        "type": "Point",
        "coordinates": [
          -119.73128,
          36.734311
        ]
      },
      "properties": {
        "name": "Fresno, CA",
        "address": "4938 E Cesar Chavez Blvd, Fresno, CA 93727-3896",
        "slug": "fresno-ca",
        "url": "https://www.planetfitness.com/gyms/fresno-ca",
        "brand": "Planet Fitness"
      }
    },
    {
      "type": "Feature",
      "geometry": {
        "type": "Point",
        "coordinates": [
          -119.773917,
          36.814712
        ]
      },
      "properties": {
        "name": "Fresno (East Barstow), CA",
        "address": "741 E Barstow Ave, Fresno, CA 93710-6205",
        "slug": "fresno-east-barstow-ca",
        "url": "https://www.planetfitness.com/gyms/fresno-east-barstow-ca",
        "brand": "Planet Fitness"
      }
    },
    {
      "type": "Feature",
      "geometry": {
        "type": "Point",
        "coordinates": [
          -119.793314,
          36.785926
        ]
      },
      "properties": {
        "name": "Fresno (N Blackstone Ave), CA",
        "address": "3756 N Blackstone Ave, Fresno, CA 93726",
        "slug": "fresno-n-blackstone-ave-ca",
        "url": "https://www.planetfitness.com/gyms/fresno-n-blackstone-ave-ca",
        "brand": "Planet Fitness"
      }
    },
    {
      "type": "Feature",
      "geometry": {
        "type": "Point",
        "coordinates": [
          -119.853919,
          36.809801
        ]
      },
      "properties": {
        "name": "Fresno (W Shaw Ave), CA",
        "address": "3382 W Shaw Ave, Fresno, CA 93711",
        "slug": "fresno-w-shaw-ave-ca",
        "url": "https://www.planetfitness.com/gyms/fresno-w-shaw-ave-ca",
        "brand": "Planet Fitness"
      }
    },
    {
      "type": "Feature",
      "geometry": {
        "type": "Point",
        "coordinates": [
          -117.9215871,
          33.7280977
        ]
      },
      "properties": {
        "name": "Fountain Valley, CA",
        "address": "16201 Harbor Blvd, Fountain Valley, CA 92708",
        "slug": "fountain-valley-ca",
        "url": "https://www.planetfitness.com/gyms/fountain-valley-ca",
        "brand": "Planet Fitness"
      }
    },
    {
      "type": "Feature",
      "geometry": {
        "type": "Point",
        "coordinates": [
          -121.999723,
          37.529606
        ]
      },
      "properties": {
        "name": "Fremont, CA",
        "address": "5140 Mowry Ave, Fremont, CA 94538",
        "slug": "fremont-ca",
        "url": "https://www.planetfitness.com/gyms/fremont-ca",
        "brand": "Planet Fitness"
      }
    },
    {
      "type": "Feature",
      "geometry": {
        "type": "Point",
        "coordinates": [
          -122.025358,
          37.568548
        ]
      },
      "properties": {
        "name": "Fremont (North), CA",
        "address": "35630 Fremont Blvd, Fremont, CA 94536",
        "slug": "fremont-north-ca",
        "url": "https://www.planetfitness.com/gyms/fremont-north-ca",
        "brand": "Planet Fitness"
      }
    },
    {
      "type": "Feature",
      "geometry": {
        "type": "Point",
        "coordinates": [
          -117.9062567,
          33.8708439
        ]
      },
      "properties": {
        "name": "Fullerton, CA",
        "address": "104 North Raymond Ave, Fullerton, CA 92831",
        "slug": "fullerton-ca",
        "url": "https://www.planetfitness.com/gyms/fullerton-ca",
        "brand": "Planet Fitness"
      }
    },
    {
      "type": "Feature",
      "geometry": {
        "type": "Point",
        "coordinates": [
          -118.2545984,
          34.1496647
        ]
      },
      "properties": {
        "name": "Glendale, CA",
        "address": "240 N Brand Blvd, Unit 200, Glendale, CA 91203-2610",
        "slug": "glendale-ca",
        "url": "https://www.planetfitness.com/gyms/glendale-ca",
        "brand": "Planet Fitness"
      }
    },
    {
      "type": "Feature",
      "geometry": {
        "type": "Point",
        "coordinates": [
          -116.957478,
          33.749143
        ]
      },
      "properties": {
        "name": "Hemet, CA",
        "address": "1390 E Florida Ave, #A8, Hemet, CA 92544",
        "slug": "hemet-ca",
        "url": "https://www.planetfitness.com/gyms/hemet-ca",
        "brand": "Planet Fitness"
      }
    },
    {
      "type": "Feature",
      "geometry": {
        "type": "Point",
        "coordinates": [
          -117.010298,
          33.728404
        ]
      },
      "properties": {
        "name": "Hemet (Southwest), CA",
        "address": "1165 S Sanderson Ave, Hemet, CA 92545-9047",
        "slug": "hemet-southwest-ca",
        "url": "https://www.planetfitness.com/gyms/hemet-southwest-ca",
        "brand": "Planet Fitness"
      }
    },
    {
      "type": "Feature",
      "geometry": {
        "type": "Point",
        "coordinates": [
          -118.5009344,
          34.2728977
        ]
      },
      "properties": {
        "name": "Granada Hills, CA",
        "address": "11122 Balboa Blvd, Granada Hills, CA 91344",
        "slug": "granada-hills-ca",
        "url": "https://www.planetfitness.com/gyms/granada-hills-ca",
        "brand": "Planet Fitness"
      }
    },
    {
      "type": "Feature",
      "geometry": {
        "type": "Point",
        "coordinates": [
          -119.8767074,
          34.4292001
        ]
      },
      "properties": {
        "name": "Goleta, CA",
        "address": "7127 Hollister Ave, Goleta, CA 93117-2859",
        "slug": "goleta-ca",
        "url": "https://www.planetfitness.com/gyms/goleta-ca",
        "brand": "Planet Fitness"
      }
    },
    {
      "type": "Feature",
      "geometry": {
        "type": "Point",
        "coordinates": [
          -118.3530412,
          33.9132732
        ]
      },
      "properties": {
        "name": "Hawthorne, CA",
        "address": "13119 Hawthorne Blvd, Hawthorne, CA 90250",
        "slug": "hawthorne-ca",
        "url": "https://www.planetfitness.com/gyms/hawthorne-ca",
        "brand": "Planet Fitness"
      }
    },
    {
      "type": "Feature",
      "geometry": {
        "type": "Point",
        "coordinates": [
          -121.1719483,
          38.7449473
        ]
      },
      "properties": {
        "name": "Granite Bay, CA",
        "address": "6891 Douglas Blvd, Granite Bay, CA 95746-6200",
        "slug": "granite-bay-ca",
        "url": "https://www.planetfitness.com/gyms/granite-bay-ca",
        "brand": "Planet Fitness"
      }
    },
    {
      "type": "Feature",
      "geometry": {
        "type": "Point",
        "coordinates": [
          -117.25646,
          34.470694
        ]
      },
      "properties": {
        "name": "Hesperia (Bear Valley Rd), CA",
        "address": "18683 Bear Valley Rd, Hesperia, CA 92395",
        "slug": "hesperia-bear-valley-rd-ca",
        "url": "https://www.planetfitness.com/gyms/hesperia-bear-valley-rd-ca",
        "brand": "Planet Fitness"
      }
    },
    {
      "type": "Feature",
      "geometry": {
        "type": "Point",
        "coordinates": [
          -117.385522,
          34.421216
        ]
      },
      "properties": {
        "name": "Hesperia, CA",
        "address": "12745 Main St, Hesperia, CA 92345",
        "slug": "hesperia-ca",
        "url": "https://www.planetfitness.com/gyms/hesperia-ca",
        "brand": "Planet Fitness"
      }
    },
    {
      "type": "Feature",
      "geometry": {
        "type": "Point",
        "coordinates": [
          -118.073333,
          33.8380637
        ]
      },
      "properties": {
        "name": "Hawaiian Gardens, CA",
        "address": "21101 Norwalk Blvd, Hawaiian Gardens, CA 90716-1017",
        "slug": "hawaiian-gardens-ca",
        "url": "https://www.planetfitness.com/gyms/hawaiian-gardens-ca",
        "brand": "Planet Fitness"
      }
    },
    {
      "type": "Feature",
      "geometry": {
        "type": "Point",
        "coordinates": [
          -119.6769514,
          36.3276667
        ]
      },
      "properties": {
        "name": "Hanford, CA",
        "address": "1919 W Lacey Blvd, Hanford, CA 93230",
        "slug": "hanford-ca",
        "url": "https://www.planetfitness.com/gyms/hanford-ca",
        "brand": "Planet Fitness"
      }
    },
    {
      "type": "Feature",
      "geometry": {
        "type": "Point",
        "coordinates": [
          -118.32306,
          33.929681
        ]
      },
      "properties": {
        "name": "Inglewood (Imperial Hwy), CA",
        "address": "2700 W Imperial Hwy, Inglewood, CA 90303",
        "slug": "inglewood-imperial-hwy-ca",
        "url": "https://www.planetfitness.com/gyms/inglewood-imperial-hwy-ca",
        "brand": "Planet Fitness"
      }
    },
    {
      "type": "Feature",
      "geometry": {
        "type": "Point",
        "coordinates": [
          -118.349039,
          33.960054
        ]
      },
      "properties": {
        "name": "Inglewood (Manchester Blvd), CA",
        "address": "500 E Manchester Blvd Ste A, Inglewood, CA 90301-9295",
        "slug": "inglewood-manchester-blvd-ca",
        "url": "https://www.planetfitness.com/gyms/inglewood-manchester-blvd-ca",
        "brand": "Planet Fitness"
      }
    },
    {
      "type": "Feature",
      "geometry": {
        "type": "Point",
        "coordinates": [
          -122.1008617,
          37.6520145
        ]
      },
      "properties": {
        "name": "Hayward, CA",
        "address": "214 B Southland Mall Dr, Hayward, CA 94545",
        "slug": "hayward-ca",
        "url": "https://www.planetfitness.com/gyms/hayward-ca",
        "brand": "Planet Fitness"
      }
    },
    {
      "type": "Feature",
      "geometry": {
        "type": "Point",
        "coordinates": [
          -118.007307,
          33.6851179
        ]
      },
      "properties": {
        "name": "Huntington Beach (Goldenwest St), CA",
        "address": "19101 Goldenwest St, Huntington Beach, CA 92648",
        "slug": "huntington-beach-goldenwest-st-ca",
        "url": "https://www.planetfitness.com/gyms/huntington-beach-goldenwest-st-ca",
        "brand": "Planet Fitness"
      }
    },
    {
      "type": "Feature",
      "geometry": {
        "type": "Point",
        "coordinates": [
          -117.9520028,
          33.9314129
        ]
      },
      "properties": {
        "name": "La Habra, CA",
        "address": "580 W La Habra Blvd, La Habra, CA 90621",
        "slug": "la-habra-ca",
        "url": "https://www.planetfitness.com/gyms/la-habra-ca",
        "brand": "Planet Fitness"
      }
    },
    {
      "type": "Feature",
      "geometry": {
        "type": "Point",
        "coordinates": [
          -118.2337247,
          33.9757223
        ]
      },
      "properties": {
        "name": "Huntington Park, CA",
        "address": "7010 S Alameda St, Huntington Park, CA 90255",
        "slug": "huntington-park-ca",
        "url": "https://www.planetfitness.com/gyms/huntington-park-ca",
        "brand": "Planet Fitness"
      }
    },
    {
      "type": "Feature",
      "geometry": {
        "type": "Point",
        "coordinates": [
          -116.2876409,
          33.7077178
        ]
      },
      "properties": {
        "name": "La Quinta, CA",
        "address": "78987 Hwy 111, La Quinta, CA 92253",
        "slug": "la-quinta-ca",
        "url": "https://www.planetfitness.com/gyms/la-quinta-ca",
        "brand": "Planet Fitness"
      }
    },
    {
      "type": "Feature",
      "geometry": {
        "type": "Point",
        "coordinates": [
          -117.0205566,
          32.7897844
        ]
      },
      "properties": {
        "name": "La Mesa, CA",
        "address": "6145 Lake Murray Blvd, La Mesa, CA 91942-2501",
        "slug": "la-mesa-ca",
        "url": "https://www.planetfitness.com/gyms/la-mesa-ca",
        "brand": "Planet Fitness"
      }
    },
    {
      "type": "Feature",
      "geometry": {
        "type": "Point",
        "coordinates": [
          -117.7148535,
          33.5223018
        ]
      },
      "properties": {
        "name": "Laguna Niguel, CA",
        "address": "30272 Crown Valley Pkwy, Laguna Niguel, CA 92677",
        "slug": "laguna-niguel-ca",
        "url": "https://www.planetfitness.com/gyms/laguna-niguel-ca",
        "brand": "Planet Fitness"
      }
    },
    {
      "type": "Feature",
      "geometry": {
        "type": "Point",
        "coordinates": [
          -117.298655,
          33.6542862
        ]
      },
      "properties": {
        "name": "Lake Elsinore, CA",
        "address": "32261 Mission Trail, Bldg F, Lake Elsinore, CA 92530",
        "slug": "lake-elsinore-ca",
        "url": "https://www.planetfitness.com/gyms/lake-elsinore-ca",
        "brand": "Planet Fitness"
      }
    },
    {
      "type": "Feature",
      "geometry": {
        "type": "Point",
        "coordinates": [
          -117.9455363,
          34.0503266
        ]
      },
      "properties": {
        "name": "La Puente, CA",
        "address": "1717 N Hacienda Blvd, La Puente, CA 91744",
        "slug": "la-puente-ca",
        "url": "https://www.planetfitness.com/gyms/la-puente-ca",
        "brand": "Planet Fitness"
      }
    },
    {
      "type": "Feature",
      "geometry": {
        "type": "Point",
        "coordinates": [
          -118.3974162,
          34.2755371
        ]
      },
      "properties": {
        "name": "Sylmar, CA",
        "address": "11950 Foothill Blvd, Lake View Terrace, CA 91342",
        "slug": "sylmar-ca",
        "url": "https://www.planetfitness.com/gyms/sylmar-ca",
        "brand": "Planet Fitness"
      }
    },
    {
      "type": "Feature",
      "geometry": {
        "type": "Point",
        "coordinates": [
          -118.167008,
          33.854706
        ]
      },
      "properties": {
        "name": "Long Beach (Cherry Ave), CA",
        "address": "5400 Cherry Ave, Long Beach, CA 90805",
        "slug": "long-beach-cherry-ave-ca",
        "url": "https://www.planetfitness.com/gyms/long-beach-cherry-ave-ca",
        "brand": "Planet Fitness"
      }
    },
    {
      "type": "Feature",
      "geometry": {
        "type": "Point",
        "coordinates": [
          -118.192807,
          33.771505
        ]
      },
      "properties": {
        "name": "Long Beach (Downtown), CA",
        "address": "345 Pine Ave, Long Beach, CA 90802-2327",
        "slug": "long-beach-downtown-ca",
        "url": "https://www.planetfitness.com/gyms/long-beach-downtown-ca",
        "brand": "Planet Fitness"
      }
    },
    {
      "type": "Feature",
      "geometry": {
        "type": "Point",
        "coordinates": [
          -118.137703,
          33.790947
        ]
      },
      "properties": {
        "name": "Long Beach (Ximeno Ave), CA",
        "address": "1890 Ximeno Ave, Long Beach, CA 90815",
        "slug": "long-beach-ximeno-ave-ca",
        "url": "https://www.planetfitness.com/gyms/long-beach-ximeno-ave-ca",
        "brand": "Planet Fitness"
      }
    },
    {
      "type": "Feature",
      "geometry": {
        "type": "Point",
        "coordinates": [
          -117.7042606,
          33.6198105
        ]
      },
      "properties": {
        "name": "Lake Forest, CA",
        "address": "23633 El Toro Rd, Lake Forest, CA 92630-4780",
        "slug": "lake-forest-ca",
        "url": "https://www.planetfitness.com/gyms/lake-forest-ca",
        "brand": "Planet Fitness"
      }
    },
    {
      "type": "Feature",
      "geometry": {
        "type": "Point",
        "coordinates": [
          -116.9243509,
          32.8559825
        ]
      },
      "properties": {
        "name": "Lakeside, CA",
        "address": "12419 Woodside Ave, Lakeside, CA 92040",
        "slug": "lakeside-ca",
        "url": "https://www.planetfitness.com/gyms/lakeside-ca",
        "brand": "Planet Fitness"
      }
    },
    {
      "type": "Feature",
      "geometry": {
        "type": "Point",
        "coordinates": [
          -118.328817,
          33.988208
        ]
      },
      "properties": {
        "name": "Los Angeles (Crenshaw & Slauson), CA",
        "address": "3230 W Slauson Ave, Los Angeles, CA 90043-2563",
        "slug": "los-angeles-crenshaw-slauson-ca",
        "url": "https://www.planetfitness.com/gyms/los-angeles-crenshaw-slauson-ca",
        "brand": "Planet Fitness"
      }
    },
    {
      "type": "Feature",
      "geometry": {
        "type": "Point",
        "coordinates": [
          -118.250599,
          34.048828
        ]
      },
      "properties": {
        "name": "Los Angeles (DTLA), CA",
        "address": "437 S Broadway, Los Angeles, CA 90013",
        "slug": "los-angeles-dtla-ca",
        "url": "https://www.planetfitness.com/gyms/los-angeles-dtla-ca",
        "brand": "Planet Fitness"
      }
    },
    {
      "type": "Feature",
      "geometry": {
        "type": "Point",
        "coordinates": [
          -118.328363,
          34.039564
        ]
      },
      "properties": {
        "name": "Los Angeles (Mid City - W Washington), CA",
        "address": "4050 W Washington Blvd, Los Angeles, CA 90018-1050",
        "slug": "los-angeles-mid-city-w-washington-ca",
        "url": "https://www.planetfitness.com/gyms/los-angeles-mid-city-w-washington-ca",
        "brand": "Planet Fitness"
      }
    },
    {
      "type": "Feature",
      "geometry": {
        "type": "Point",
        "coordinates": [
          -118.338476,
          34.047681
        ]
      },
      "properties": {
        "name": "Los Angeles (Midtown), CA",
        "address": "4645 Venice Blvd, Los Angeles, CA 90019",
        "slug": "los-angeles-midtown-ca",
        "url": "https://www.planetfitness.com/gyms/los-angeles-midtown-ca",
        "brand": "Planet Fitness"
      }
    },
    {
      "type": "Feature",
      "geometry": {
        "type": "Point",
        "coordinates": [
          -118.252043,
          34.024951
        ]
      },
      "properties": {
        "name": "Los Angeles (Washington Blvd), CA",
        "address": "1000 E Washington Blvd, Suite 120, Los Angeles, CA 90021",
        "slug": "los-angeles-washington-blvd-ca",
        "url": "https://www.planetfitness.com/gyms/los-angeles-washington-blvd-ca",
        "brand": "Planet Fitness"
      }
    },
    {
      "type": "Feature",
      "geometry": {
        "type": "Point",
        "coordinates": [
          -118.282975,
          34.03812
        ]
      },
      "properties": {
        "name": "Los Angeles (Washington & Hoover), CA",
        "address": "1122 W Washington Blvd, Los Angeles, CA 90015-3349",
        "slug": "los-angeles-washington-hoover-ca",
        "url": "https://www.planetfitness.com/gyms/los-angeles-washington-hoover-ca",
        "brand": "Planet Fitness"
      }
    },
    {
      "type": "Feature",
      "geometry": {
        "type": "Point",
        "coordinates": [
          -118.1711455,
          34.6922692
        ]
      },
      "properties": {
        "name": "Lancaster, CA",
        "address": "44600 Valley Central Way, Lancaster, CA 93536",
        "slug": "lancaster-ca",
        "url": "https://www.planetfitness.com/gyms/lancaster-ca",
        "brand": "Planet Fitness"
      }
    },
    {
      "type": "Feature",
      "geometry": {
        "type": "Point",
        "coordinates": [
          -121.2590286,
          38.128657
        ]
      },
      "properties": {
        "name": "Lodi, CA",
        "address": "520 S Cherokee Ln, Lodi, CA 95240",
        "slug": "lodi-ca",
        "url": "https://www.planetfitness.com/gyms/lodi-ca",
        "brand": "Planet Fitness"
      }
    },
    {
      "type": "Feature",
      "geometry": {
        "type": "Point",
        "coordinates": [
          -120.4612077,
          34.6536504
        ]
      },
      "properties": {
        "name": "Lompoc, CA",
        "address": "1009 N H St, Lompoc, CA 93436",
        "slug": "lompoc-ca",
        "url": "https://www.planetfitness.com/gyms/lompoc-ca",
        "brand": "Planet Fitness"
      }
    },
    {
      "type": "Feature",
      "geometry": {
        "type": "Point",
        "coordinates": [
          -120.8197775,
          37.057995
        ]
      },
      "properties": {
        "name": "Los Banos, CA",
        "address": "2240 E Pacheco Blvd, Los Banos, CA 93635",
        "slug": "los-banos-ca",
        "url": "https://www.planetfitness.com/gyms/los-banos-ca",
        "brand": "Planet Fitness"
      }
    },
    {
      "type": "Feature",
      "geometry": {
        "type": "Point",
        "coordinates": [
          -120.953924,
          37.664793
        ]
      },
      "properties": {
        "name": "Modesto East, CA",
        "address": "2401 E Orangeburg Ave Ste 400, Modesto, CA 95355-3396",
        "slug": "modesto-east-ca",
        "url": "https://www.planetfitness.com/gyms/modesto-east-ca",
        "brand": "Planet Fitness"
      }
    },